[{
  "_id": {
    "$oid": "635ed87c07ae6ca9558ee81d"
  },
  "iata": "JPE",
  "time_zone_id": "America/Sao_Paulo",
  "name": "Nagib Demachki Airport",
  "city_code": "JPE",
  "country_id": "BR",
  "location": "POINT (-47.316389 -3.019722)",
  "elevation": "443",
  "icao": "SNEB",
  "city": "Paragominas"
},{
  "_id": {
    "$oid": "635ed87c07ae6ca9558ee814"
  },
  "iata": "JTN",
  "time_zone_id": "America/Sao_Paulo",
  "name": "Antônio Ribeiro Nogueira Jr. State Airport",
  "city_code": "JTN",
  "country_id": "BR",
  "location": "POINT (-46.785556 -24.164722)",
  "elevation": "10",
  "icao": "SDIM",
  "city": "Itanhaém"
},{
  "_id": {
    "$oid": "635ed87c07ae6ca9558ee815"
  },
  "iata": "JTA",
  "time_zone_id": "America/Fortaleza",
  "name": "Pedro Teixeira Castelo Airport",
  "city_code": "JTA",
  "country_id": "BR",
  "location": "POINT (-40.29597814583012 -5.93260025)",
  "elevation": "1457",
  "icao": "SDZG",
  "city": "Tauá"
},{
  "_id": {
    "$oid": "635ed87c07ae6ca9558ee82b"
  },
  "iata": "AAG",
  "time_zone_id": "America/Sao_Paulo",
  "name": "Arapoti",
  "city_code": "AAG",
  "country_id": "BR",
  "location": "POINT (-49.78949435424242 -24.1037812)",
  "elevation": "2608",
  "icao": "SSYA",
  "city": "Jaguariaiva",
  "state": "Parana"
},{
  "_id": {
    "$oid": "635ed87c07ae6ca9558ee82d"
  },
  "iata": "ALT",
  "time_zone_id": "America/Santarem",
  "name": "Alenquer",
  "city_code": "ALT",
  "country_id": "BR",
  "location": "POINT (-54.766666 -1.933333)",
  "elevation": "3",
  "icao": "SDWQ",
  "city": "Alenquer",
  "state": "Para"
},{
  "_id": {
    "$oid": "635ed87c07ae6ca9558ee832"
  },
  "iata": "CAU",
  "time_zone_id": "America/Recife",
  "name": "Caruaru",
  "city_code": "CAU",
  "country_id": "BR",
  "location": "POINT (-35.916668 -8.25)",
  "elevation": "1932",
  "icao": "SNRU",
  "city": "Caruaru",
  "state": "Pernambuco"
},{
  "_id": {
    "$oid": "635ed87c07ae6ca9558ee839"
  },
  "iata": "BRA",
  "time_zone_id": "America/Bahia",
  "name": "Barreiras Airport",
  "city_code": "BRA",
  "country_id": "BR",
  "location": "POINT (-45.009705353357425 -12.0794806)",
  "elevation": "2440",
  "icao": "SNBR",
  "city": "Barreiras",
  "state": "Bahia"
},{
  "_id": {
    "$oid": "635ed87c07ae6ca9558ee84c"
  },
  "iata": "MTE",
  "time_zone_id": "America/Santarem",
  "name": "Monte Alegre",
  "city_code": "MTE",
  "country_id": "BR",
  "location": "POINT (-54.066666 -1.983333)",
  "elevation": "183",
  "icao": "SNMA",
  "city": "Monte Alegre",
  "state": "Para"
},{
  "_id": {
    "$oid": "635ed87c07ae6ca9558ee84f"
  },
  "iata": "APS",
  "time_zone_id": "America/Sao_Paulo",
  "name": "Anapolis",
  "city_code": "APS",
  "country_id": "BR",
  "location": "POINT (-48.966667 -16.333332)",
  "elevation": "3280",
  "icao": "SWNS",
  "city": "Anapolis",
  "state": "Goias"
},{
  "_id": {
    "$oid": "635ed87c07ae6ca9558ee853"
  },
  "iata": "CKO",
  "time_zone_id": "America/Sao_Paulo",
  "name": "Cornelio Procopio",
  "city_code": "CKO",
  "country_id": "BR",
  "location": "POINT (-50.666668 -23.116667)",
  "elevation": "1653",
  "icao": "SSCP",
  "city": "Bandeirantes",
  "state": "Parana"
},{
  "_id": {
    "$oid": "635ed87c07ae6ca9558ee85c"
  },
  "iata": "CMP",
  "time_zone_id": "America/Belem",
  "name": "Campo Alegre",
  "city_code": "CMP",
  "country_id": "BR",
  "location": "POINT (-36.35 -9.8)",
  "elevation": "587",
  "icao": "SNKE",
  "city": "Campo Alegre",
  "state": "Alagoas"
},{
  "_id": {
    "$oid": "635ed87c07ae6ca9558ee862"
  },
  "iata": "BDC",
  "time_zone_id": "America/Fortaleza",
  "name": "Barra Do Corda",
  "city_code": "BDC",
  "country_id": "BR",
  "location": "POINT (-45.266666 -5.466667)",
  "elevation": "551",
  "icao": "SNBC",
  "city": "Barra do Corda",
  "state": "Maranhao"
},{
  "_id": {
    "$oid": "635ed87c07ae6ca9558ee868"
  },
  "iata": "CSS",
  "time_zone_id": "America/Campo_Grande",
  "name": "Cassilandia",
  "city_code": "CSS",
  "country_id": "BR",
  "location": "POINT (-51.983334 -18.983334)",
  "elevation": "1669",
  "icao": "SSCL",
  "city": "Cassilandia",
  "state": "Mato Grosso do Sul"
},{
  "_id": {
    "$oid": "635ed87c07ae6ca9558ee86b"
  },
  "iata": "BJP",
  "time_zone_id": "America/Sao_Paulo",
  "name": "Braganca Paulista",
  "city_code": "BJP",
  "country_id": "BR",
  "location": "POINT (-46.53679706594859 -22.979598199999998)",
  "elevation": "2933",
  "icao": "SBBP",
  "city": "Braganca Paulista",
  "state": "Sao Paulo"
},{
  "_id": {
    "$oid": "635ed87c07ae6ca9558ee873"
  },
  "iata": "SJP",
  "time_zone_id": "America/Sao_Paulo",
  "name": "Sao Jose do Rio Preto Airport",
  "city_code": "SJP",
  "country_id": "BR",
  "location": "POINT (-49.408467700474546 -20.81731545)",
  "elevation": "1755",
  "icao": "SBSR",
  "city": "Sao Jose do Rio Preto",
  "state": "Sao Paulo"
},{
  "_id": {
    "$oid": "635ed87c07ae6ca9558ee874"
  },
  "iata": "AXE",
  "time_zone_id": "America/Sao_Paulo",
  "name": "Xanxere",
  "city_code": "AXE",
  "country_id": "BR",
  "location": "POINT (-52.37339732495896 -26.8749455)",
  "elevation": "2929",
  "icao": "SSXX",
  "city": "Xanxere",
  "state": "Santa Catarina"
},{
  "_id": {
    "$oid": "635ed87c07ae6ca9558ee875"
  },
  "iata": "BSS",
  "time_zone_id": "America/Fortaleza",
  "name": "Balsas",
  "city_code": "BSS",
  "country_id": "BR",
  "location": "POINT (-46.05 -7.516667)",
  "elevation": "885",
  "icao": "SNBS",
  "city": "Balsas",
  "state": "Maranhao"
},{
  "_id": {
    "$oid": "635ed87c07ae6ca9558ee87c"
  },
  "iata": "BGX",
  "time_zone_id": "America/Sao_Paulo",
  "name": "Airport Cmdt. Gustavo Kraemer",
  "city_code": "BGX",
  "country_id": "BR",
  "location": "POINT (-54.112838163262815 -31.390997249999998)",
  "elevation": "580",
  "icao": "SBBG",
  "city": "Bage",
  "state": "Rio Grande do Sul"
},{
  "_id": {
    "$oid": "635ed87c07ae6ca9558ee87f"
  },
  "iata": "BPG",
  "time_zone_id": "America/Cuiaba",
  "name": "Barra Do Garcas",
  "city_code": "BPG",
  "country_id": "BR",
  "location": "POINT (-52.39006674230171 -15.8606725)",
  "elevation": "1141",
  "icao": "SBBW",
  "city": "Barra do Garcas",
  "state": "Mato Grosso"
},{
  "_id": {
    "$oid": "635ed87c07ae6ca9558ee882"
  },
  "iata": "NVP",
  "time_zone_id": "America/Manaus",
  "name": "Novo Aripuana",
  "city_code": "NVP",
  "country_id": "BR",
  "location": "POINT (-60.36429342007336 -5.117820549999999)",
  "elevation": "121",
  "icao": "SWNA",
  "city": "Novo Aripuana",
  "state": "Amazonas"
},{
  "_id": {
    "$oid": "635ed87c07ae6ca9558ee888"
  },
  "iata": "CFC",
  "time_zone_id": "America/Sao_Paulo",
  "name": "Cacador",
  "city_code": "CFC",
  "country_id": "BR",
  "location": "POINT (-50.940058269051605 -26.788347950000002)",
  "elevation": "3339",
  "icao": "SBCD",
  "city": "Cacador",
  "state": "Santa Catarina"
},{
  "_id": {
    "$oid": "635ed87c07ae6ca9558ee889"
  },
  "iata": "OTT",
  "time_zone_id": "America/Cuiaba",
  "name": "Andre Maggi",
  "city_code": "OTT",
  "country_id": "BR",
  "location": "POINT (-58.581287 -9.902215)",
  "elevation": "921",
  "city": "Aripuana",
  "state": "Mato Grosso"
},{
  "_id": {
    "$oid": "635ed87c07ae6ca9558ee88c"
  },
  "iata": "PET",
  "time_zone_id": "America/Sao_Paulo",
  "name": "Federal Airport",
  "city_code": "PET",
  "country_id": "BR",
  "location": "POINT (-52.324444 -31.718056)",
  "elevation": "49",
  "icao": "SBPK",
  "city": "Pelotas",
  "state": "Rio Grande do Sul"
},{
  "_id": {
    "$oid": "635ed87c07ae6ca9558ee88d"
  },
  "iata": "PDR",
  "time_zone_id": "America/Fortaleza",
  "name": "Presidente Dutra",
  "city_code": "PDR",
  "country_id": "BR",
  "location": "POINT (-44.4858434 -5.3075836)",
  "elevation": "318",
  "city": "Presidente Dutra",
  "state": "Maranhao"
},{
  "_id": {
    "$oid": "635ed87c07ae6ca9558ee88f"
  },
  "iata": "PHB",
  "time_zone_id": "America/Fortaleza",
  "name": "Santos Dumont",
  "city_code": "PHB",
  "country_id": "BR",
  "location": "POINT (-41.738335 -2.891667)",
  "elevation": "19",
  "icao": "SBPB",
  "city": "Parnaiba",
  "state": "Piaui"
},{
  "_id": {
    "$oid": "635ed87c07ae6ca9558ee891"
  },
  "iata": "PFB",
  "time_zone_id": "America/Sao_Paulo",
  "name": "Passo Fundo Airport",
  "city_code": "PFB",
  "country_id": "BR",
  "location": "POINT (-52.32669864043906 -28.2435244)",
  "elevation": "2362",
  "icao": "SBPF",
  "city": "Passo Fundo",
  "state": "Rio Grande do Sul"
},{
  "_id": {
    "$oid": "635ed87c07ae6ca9558ee893"
  },
  "iata": "PIN",
  "time_zone_id": "America/Manaus",
  "name": "Parintins",
  "city_code": "PIN",
  "country_id": "BR",
  "location": "POINT (-56.77727067382461 -2.6731800000000003)",
  "elevation": "36",
  "icao": "SWPI",
  "city": "Parintins",
  "state": "Amazonas"
},{
  "_id": {
    "$oid": "635ed87c07ae6ca9558ee8a3"
  },
  "iata": "DNO",
  "time_zone_id": "America/Araguaina",
  "name": "Dianopolis",
  "city_code": "DNO",
  "country_id": "BR",
  "location": "POINT (-46.8466988 -11.5953999)",
  "elevation": "2365",
  "icao": "SWDN",
  "city": "Taguatinga",
  "state": "Tocantins"
},{
  "_id": {
    "$oid": "635ed87c07ae6ca9558ee8a5"
  },
  "iata": "DTI",
  "time_zone_id": "America/Sao_Paulo",
  "name": "Diamantina",
  "city_code": "DTI",
  "country_id": "BR",
  "location": "POINT (-43.65036719883837 -18.23369525)",
  "elevation": "4527",
  "icao": "SNDT",
  "city": "Diamantina",
  "state": "Minas Gerais"
},{
  "_id": {
    "$oid": "635ed87c07ae6ca9558ee8ab"
  },
  "iata": "RVD",
  "time_zone_id": "America/Sao_Paulo",
  "name": "Rio Verde Airport",
  "city_code": "RVD",
  "country_id": "BR",
  "location": "POINT (-50.933334 -17.716667)",
  "elevation": "2627",
  "icao": "SWLC",
  "city": "Santa Helena de Goias",
  "state": "Goias"
},{
  "_id": {
    "$oid": "635ed87c07ae6ca9558ee8b1"
  },
  "iata": "SNZ",
  "time_zone_id": "America/Fortaleza",
  "name": "Santa Cruz",
  "city_code": "SNZ",
  "country_id": "BR",
  "location": "POINT (-36.016666 -6.216667)",
  "elevation": "813",
  "icao": "SBSC",
  "city": "Santa Cruz",
  "state": "Rio Grande do Norte"
},{
  "_id": {
    "$oid": "635ed87c07ae6ca9558ee8b8"
  },
  "iata": "SSO",
  "time_zone_id": "America/Sao_Paulo",
  "name": "Sao Lourenco",
  "city_code": "SSO",
  "country_id": "BR",
  "location": "POINT (-45.05 -22.116667)",
  "elevation": "2903",
  "icao": "SNLO",
  "city": "Sao Lourenco",
  "state": "Minas Gerais"
},{
  "_id": {
    "$oid": "635ed87c07ae6ca9558ee8bb"
  },
  "iata": "STM",
  "time_zone_id": "America/Santarem",
  "name": "Santarem-Maestro Wilson Fonseca Airport",
  "city_code": "STM",
  "country_id": "BR",
  "location": "POINT (-54.80445559036728 -2.42713895)",
  "elevation": "206",
  "icao": "SBSN",
  "city": "Santarem",
  "state": "Para"
},{
  "_id": {
    "$oid": "635ed87c07ae6ca9558ee8bd"
  },
  "iata": "FLN",
  "time_zone_id": "America/Sao_Paulo",
  "name": "Hercilio Luz International Airport",
  "city_code": "FLN",
  "country_id": "BR",
  "location": "POINT (-48.54468648648172 -27.670113450000002)",
  "elevation": "19",
  "icao": "SBFL",
  "city": "Carianos",
  "state": "Santa Catarina"
},{
  "_id": {
    "$oid": "635ed87c07ae6ca9558ee8be"
  },
  "iata": "SXO",
  "time_zone_id": "America/Cuiaba",
  "name": "Sao Felix Do Araguaia",
  "city_code": "SXO",
  "country_id": "BR",
  "location": "POINT (-50.65 -11.6)",
  "elevation": "639",
  "icao": "SWFX",
  "city": "Gurupi",
  "state": "Tocantins"
},{
  "_id": {
    "$oid": "635ed87c07ae6ca9558ee8c2"
  },
  "iata": "GCV",
  "time_zone_id": "America/Sao_Paulo",
  "name": "Gravatai",
  "city_code": "GCV",
  "country_id": "BR",
  "location": "POINT (-50.994167 -29.941668)",
  "elevation": "127",
  "city": "Gravatai",
  "state": "Rio Grande do Sul"
},{
  "_id": {
    "$oid": "635ed87c07ae6ca9558ee8c4"
  },
  "iata": "GEL",
  "time_zone_id": "America/Sao_Paulo",
  "name": "Sepe Tiaraju",
  "city_code": "GEL",
  "country_id": "BR",
  "location": "POINT (-54.165611958794074 -28.28341965)",
  "elevation": "1013",
  "icao": "SBNM",
  "city": "Santo Angelo",
  "state": "Rio Grande do Sul"
},{
  "_id": {
    "$oid": "635ed87c07ae6ca9558ee8d3"
  },
  "iata": "GGB",
  "time_zone_id": "America/Cuiaba",
  "name": "Água Boa",
  "city_code": "GGB",
  "country_id": "BR",
  "location": "POINT (-52.15026599220484 -14.01962765)",
  "elevation": "1479",
  "city": "Mozarlandia",
  "state": "Goias"
},{
  "_id": {
    "$oid": "635ed87c07ae6ca9558ee8d8"
  },
  "iata": "TEC",
  "time_zone_id": "America/Sao_Paulo",
  "name": "Telemaco Borba",
  "city_code": "TEC",
  "country_id": "BR",
  "location": "POINT (-50.65176291354726 -24.31767995)",
  "elevation": "2610",
  "icao": "SSVL",
  "city": "Telemaco Borba",
  "state": "Parana"
},{
  "_id": {
    "$oid": "635ed87c07ae6ca9558ee8db"
  },
  "iata": "JPR",
  "time_zone_id": "America/Porto_Velho",
  "name": "Ji-Parana Airport",
  "city_code": "JPR",
  "country_id": "BR",
  "location": "POINT (-61.84667 -10.870556)",
  "elevation": "598",
  "icao": "SBJI",
  "city": "Ji Parana",
  "state": "Rondonia"
},{
  "_id": {
    "$oid": "635ed87c07ae6ca9558ee8e2"
  },
  "iata": "ILB",
  "time_zone_id": "America/Campo_Grande",
  "name": "Ilha Solteira",
  "city_code": "ILB",
  "country_id": "BR",
  "location": "POINT (-51.333332 -20.333332)",
  "elevation": "1056",
  "city": "Ilha Solteira",
  "state": "Sao Paulo"
},{
  "_id": {
    "$oid": "635ed87c07ae6ca9558ee8e3"
  },
  "iata": "IMP",
  "time_zone_id": "America/Fortaleza",
  "name": "Imperatriz Airport",
  "city_code": "IMP",
  "country_id": "BR",
  "location": "POINT (-47.45800807097166 -5.5301267)",
  "elevation": "390",
  "icao": "SBIZ",
  "city": "Imperatriz",
  "state": "Maranhao"
},{
  "_id": {
    "$oid": "635ed87c07ae6ca9558ee8eb"
  },
  "iata": "ITB",
  "time_zone_id": "America/Santarem",
  "name": "Itaituba",
  "city_code": "ITB",
  "country_id": "BR",
  "location": "POINT (-55.983334 -4.283333)",
  "elevation": "22",
  "icao": "SBIH",
  "city": "Itaituba",
  "state": "Para"
},{
  "_id": {
    "$oid": "635ed87c07ae6ca9558ee8ec"
  },
  "iata": "ITE",
  "time_zone_id": "America/Bahia",
  "name": "Itubera",
  "city_code": "ITE",
  "country_id": "BR",
  "location": "POINT (-39.2 -13.7)",
  "elevation": "554",
  "icao": "SNZW",
  "city": "Itubera",
  "state": "Bahia"
},{
  "_id": {
    "$oid": "635ed87c07ae6ca9558ee8ef"
  },
  "iata": "IZA",
  "time_zone_id": "America/Sao_Paulo",
  "name": "Zona da Mata Regional Airport",
  "city_code": "JDF",
  "country_id": "BR",
  "location": "POINT (-43.173058 -21.513056)",
  "elevation": "1318",
  "icao": "SBZM",
  "city": "Rio Novo",
  "state": "Minas Gerais"
},{
  "_id": {
    "$oid": "635ed87c07ae6ca9558ee8f0"
  },
  "iata": "JCB",
  "time_zone_id": "America/Sao_Paulo",
  "name": "Joacaba",
  "city_code": "JCB",
  "country_id": "BR",
  "location": "POINT (-51.55345654971351 -27.17148265)",
  "elevation": "2516",
  "icao": "SSJA",
  "city": "Joacaba",
  "state": "Santa Catarina"
},{
  "_id": {
    "$oid": "635ed87c07ae6ca9558ee8f1"
  },
  "iata": "JCM",
  "time_zone_id": "America/Bahia",
  "name": "Jacobina",
  "city_code": "JCM",
  "country_id": "BR",
  "location": "POINT (-40.55150285692899 -11.1640584)",
  "elevation": "1548",
  "icao": "SNJB",
  "city": "Jacobina",
  "state": "Bahia"
},{
  "_id": {
    "$oid": "635ed87c07ae6ca9558ee8f3"
  },
  "iata": "JDO",
  "time_zone_id": "America/Fortaleza",
  "name": "Orlando Bezerra de Menezes Airport",
  "city_code": "JDO",
  "country_id": "BR",
  "location": "POINT (-39.316666 -7.2)",
  "elevation": "1243",
  "icao": "SBJU",
  "city": "Juazeiro do Norte",
  "state": "Ceara"
},{
  "_id": {
    "$oid": "635ed87c07ae6ca9558ee902"
  },
  "iata": "MBZ",
  "time_zone_id": "America/Manaus",
  "name": "Maues",
  "city_code": "MBZ",
  "country_id": "BR",
  "location": "POINT (-57.724955102848156 -3.3699246499999997)",
  "elevation": "59",
  "icao": "SWMW",
  "city": "Maues",
  "state": "Amazonas"
},{
  "_id": {
    "$oid": "635ed87c07ae6ca9558ee904"
  },
  "iata": "AFL",
  "time_zone_id": "America/Cuiaba",
  "name": "Alta Floresta Airport",
  "city_code": "AFL",
  "country_id": "BR",
  "location": "POINT (-56.10603812089458 -9.866163)",
  "elevation": "790",
  "icao": "SBAT"
},{
  "_id": {
    "$oid": "635ed87c07ae6ca9558ee908"
  },
  "iata": "CMG",
  "time_zone_id": "America/Campo_Grande",
  "name": "Corumba Internacional Airport",
  "city_code": "CMG",
  "country_id": "BR",
  "location": "POINT (-57.66975905679873 -19.0125785)",
  "elevation": "485",
  "icao": "SBCR"
},{
  "_id": {
    "$oid": "635ed87c07ae6ca9558ee909"
  },
  "iata": "JCR",
  "time_zone_id": "America/Santarem",
  "name": "Jacareacanga",
  "city_code": "JCR",
  "country_id": "BR",
  "location": "POINT (-57.533333 -5.983333)",
  "elevation": "557",
  "icao": "SBEK"
},{
  "_id": {
    "$oid": "635ed87c07ae6ca9558ee90e"
  },
  "iata": "OIA",
  "time_zone_id": "America/Belem",
  "name": "Ourilandia",
  "city_code": "OIA",
  "country_id": "BR",
  "location": "POINT (-51.047096751155294 -6.76392515)",
  "elevation": "856",
  "icao": "SDOW"
},{
  "_id": {
    "$oid": "635ed87c07ae6ca9558ee90f"
  },
  "iata": "LVR",
  "time_zone_id": "America/Cuiaba",
  "name": "Mun. Do Bom Futuro",
  "city_code": "LVR",
  "country_id": "BR",
  "location": "POINT (-55.95025 -13.037861)",
  "elevation": "1312",
  "icao": "SILC"
},{
  "_id": {
    "$oid": "635ed87c07ae6ca9558ee914"
  },
  "iata": "ITI",
  "time_zone_id": "America/Sao_Paulo",
  "name": "Itambacuri",
  "city_code": "ITI",
  "country_id": "BR",
  "location": "POINT (-41.5 -18)",
  "elevation": "1394",
  "icao": "SNYH"
},{
  "_id": {
    "$oid": "635ed87c07ae6ca9558ee925"
  },
  "iata": "JIA",
  "time_zone_id": "America/Cuiaba",
  "name": "Juina",
  "city_code": "JIA",
  "country_id": "BR",
  "location": "POINT (-58.88333 -11.5)",
  "elevation": "1069",
  "icao": "SWJN"
},{
  "_id": {
    "$oid": "635ed87c07ae6ca9558ee931"
  },
  "iata": "PDF",
  "time_zone_id": "America/Bahia",
  "name": "Prado",
  "city_code": "PDF",
  "country_id": "BR",
  "location": "POINT (-39.216667 -17.35)",
  "elevation": "32",
  "icao": "SNRD",
  "city": "Prado",
  "state": "Bahia"
},{
  "_id": {
    "$oid": "635ed87c07ae6ca9558ee933"
  },
  "iata": "PIG",
  "time_zone_id": "America/Boa_Vista",
  "name": "Pitinga",
  "city_code": "PIG",
  "country_id": "BR",
  "location": "POINT (-51.716667 -24.75)",
  "elevation": "2808",
  "city": "Pitanga",
  "state": "Parana"
},{
  "_id": {
    "$oid": "635ed87c07ae6ca9558ee936"
  },
  "iata": "PPB",
  "time_zone_id": "America/Sao_Paulo",
  "name": "A. De Barros Airport",
  "city_code": "PPB",
  "country_id": "BR",
  "location": "POINT (-51.45 -22.1)",
  "elevation": "1332",
  "icao": "SBDN",
  "city": "Alvares Machado",
  "state": "Sao Paulo"
},{
  "_id": {
    "$oid": "635ed87c07ae6ca9558ee938"
  },
  "iata": "PTO",
  "time_zone_id": "America/Sao_Paulo",
  "name": "Pato Branco",
  "city_code": "PTO",
  "country_id": "BR",
  "location": "POINT (-52.694225841764215 -26.2169937)",
  "elevation": "2687",
  "icao": "SBPO",
  "city": "Pato Branco",
  "state": "Parana"
},{
  "_id": {
    "$oid": "635ed87c07ae6ca9558ee93a"
  },
  "iata": "QSC",
  "time_zone_id": "America/Sao_Paulo",
  "name": "Sao Carlos",
  "city_code": "QSC",
  "country_id": "BR",
  "location": "POINT (-47.90275820931602 -21.8730674)",
  "elevation": "2637",
  "icao": "SDSC",
  "city": "Ibate",
  "state": "Sao Paulo"
},{
  "_id": {
    "$oid": "635ed87c07ae6ca9558ee93b"
  },
  "iata": "RBB",
  "time_zone_id": "America/Manaus",
  "name": "Borba",
  "city_code": "RBB",
  "country_id": "BR",
  "location": "POINT (-59.60435028003239 -4.40582015)",
  "elevation": "88",
  "icao": "SWBR",
  "city": "Borba",
  "state": "Amazonas"
},{
  "_id": {
    "$oid": "635ed87c07ae6ca9558ee93f"
  },
  "iata": "ROO",
  "time_zone_id": "America/Cuiaba",
  "name": "Rondonopolis Airport",
  "city_code": "ROO",
  "country_id": "BR",
  "location": "POINT (-54.716667 -16.433332)",
  "elevation": "1085",
  "icao": "SBRD",
  "city": "Rondonopolis",
  "state": "Mato Grosso"
},{
  "_id": {
    "$oid": "635ed87c07ae6ca9558ee940"
  },
  "iata": "RWS",
  "time_zone_id": "America/Sao_Paulo",
  "name": "Sumare",
  "city_code": "RWS",
  "country_id": "BR",
  "location": "POINT (-47.192223 -22.800556)",
  "elevation": "1961",
  "city": "Paulinia",
  "state": "Sao Paulo"
},{
  "_id": {
    "$oid": "635ed87c07ae6ca9558ee944"
  },
  "iata": "SJK",
  "time_zone_id": "America/Sao_Paulo",
  "name": "Sao Jose Dos Campos",
  "city_code": "SJK",
  "country_id": "BR",
  "location": "POINT (-46.11667 -23.183332)",
  "elevation": "2303",
  "icao": "SBSJ",
  "city": "Santa Isabel",
  "state": "Sao Paulo"
},{
  "_id": {
    "$oid": "635ed87c07ae6ca9558ee946"
  },
  "iata": "SQX",
  "time_zone_id": "America/Sao_Paulo",
  "name": "Sao Miguel do Oeste",
  "city_code": "SQX",
  "country_id": "BR",
  "location": "POINT (-53.502777 -26.780556)",
  "elevation": "2112",
  "icao": "SSOE",
  "city": "Bernardo de Irigoyen",
  "state": "Misiones"
},{
  "_id": {
    "$oid": "635ed87c07ae6ca9558ee949"
  },
  "iata": "SWM",
  "time_zone_id": "America/Cuiaba",
  "name": "Suia-Missu",
  "city_code": "SWM",
  "country_id": "BR",
  "location": "POINT (-53.25 -11.216667)",
  "elevation": "895",
  "city": "Sinop",
  "state": "Mato Grosso"
},{
  "_id": {
    "$oid": "635ed87c07ae6ca9558ee817"
  },
  "iata": "MXQ",
  "time_zone_id": "America/Sao_Paulo",
  "name": "Lorenzo Airport",
  "city_code": "MXQ",
  "country_id": "BR",
  "location": "POINT (-38.91 -13.389444)",
  "elevation": "22",
  "icao": "SNCL",
  "city": "Cairu"
},{
  "_id": {
    "$oid": "635ed87c07ae6ca9558ee818"
  },
  "iata": "JHF",
  "time_zone_id": "America/Sao_Paulo",
  "name": "São Paulo Catarina Executive Airport",
  "city_code": "JHF",
  "country_id": "BR",
  "location": "POINT (-47.165658 -23.426886)",
  "elevation": "2562",
  "icao": "SBJH",
  "city": "São Roque",
  "state": "Sao Paulo"
},{
  "_id": {
    "$oid": "635ed87c07ae6ca9558ee81a"
  },
  "iata": "VCC",
  "time_zone_id": "America/Sao_Paulo",
  "name": "New Vacaria Airport",
  "city_code": "VCC",
  "country_id": "BR",
  "location": "POINT (-51.022778 -28.431944)",
  "elevation": "2975",
  "icao": "SNEE",
  "city": "Vacaria"
},{
  "_id": {
    "$oid": "635ed87c07ae6ca9558ee81e"
  },
  "iata": "JPY",
  "time_zone_id": "America/Sao_Paulo",
  "name": "Paraty Airport",
  "city_code": "JPY",
  "country_id": "BR",
  "location": "POINT (-44.720278 -23.224444)",
  "elevation": "10",
  "icao": "SDTK",
  "city": "Paraty"
},{
  "_id": {
    "$oid": "635ed87c07ae6ca9558ee81f"
  },
  "iata": "MEA",
  "time_zone_id": "America/Sao_Paulo",
  "name": "Macae",
  "city_code": "MEA",
  "country_id": "BR",
  "location": "POINT (-41.76577364545359 -22.343171050000002)",
  "elevation": "19",
  "icao": "SBME",
  "city": "Macae",
  "state": "Rio de Janeiro"
},{
  "_id": {
    "$oid": "635ed87c07ae6ca9558ee821"
  },
  "iata": "MEU",
  "time_zone_id": "America/Santarem",
  "name": "Monte Dourado",
  "city_code": "MEU",
  "country_id": "BR",
  "location": "POINT (-52.60197779839184 -0.8896558000000001)",
  "elevation": "649",
  "icao": "SBMD",
  "city": "Almeirim",
  "state": "Para"
},{
  "_id": {
    "$oid": "635ed87c07ae6ca9558ee822"
  },
  "iata": "EEA",
  "time_zone_id": "America/Sao_Paulo",
  "name": "Aeroporto Regional do Planalto Serrano",
  "city_code": "EEA",
  "country_id": "BR",
  "location": "POINT (-50.34963377743513 -27.63194875)",
  "elevation": "2880",
  "icao": "SNCP",
  "city": "Correia Pinto"
},{
  "_id": {
    "$oid": "635ed87c07ae6ca9558ee825"
  },
  "iata": "CSW",
  "time_zone_id": "America/Porto_Velho",
  "name": "Colorado do Oeste",
  "city_code": "CSW",
  "country_id": "BR",
  "location": "POINT (-61.168056 -13.019444)",
  "elevation": "711"
},{
  "_id": {
    "$oid": "635ed87c07ae6ca9558ee82c"
  },
  "iata": "BGV",
  "time_zone_id": "America/Sao_Paulo",
  "name": "Bento Goncalves",
  "city_code": "BGV",
  "country_id": "BR",
  "location": "POINT (-51.516666 -29.166668)",
  "elevation": "2050",
  "icao": "SSBG",
  "city": "Bento Goncalves",
  "state": "Rio Grande do Sul"
},{
  "_id": {
    "$oid": "635ed87c07ae6ca9558ee82e"
  },
  "iata": "BQQ",
  "time_zone_id": "America/Bahia",
  "name": "Barra",
  "city_code": "BQQ",
  "country_id": "BR",
  "location": "POINT (-43.13333 -11.083333)",
  "elevation": "1309",
  "icao": "SNBX",
  "city": "Barra",
  "state": "Bahia"
},{
  "_id": {
    "$oid": "635ed87c07ae6ca9558ee831"
  },
  "iata": "CAF",
  "time_zone_id": "America/Manaus",
  "name": "Carauari",
  "city_code": "CAF",
  "country_id": "BR",
  "location": "POINT (-66.89752105783637 -4.87146245)",
  "elevation": "265",
  "icao": "SWCA",
  "city": "Carauari",
  "state": "Amazonas"
},{
  "_id": {
    "$oid": "635ed87c07ae6ca9558ee833"
  },
  "iata": "CAW",
  "time_zone_id": "America/Sao_Paulo",
  "name": "Bartolomeu Lisandro Airport",
  "city_code": "CAW",
  "country_id": "BR",
  "location": "POINT (-41.3 -21.75)",
  "elevation": "32",
  "icao": "SBCP",
  "city": "Campos",
  "state": "Rio de Janeiro"
},{
  "_id": {
    "$oid": "635ed87c07ae6ca9558ee835"
  },
  "iata": "CCM",
  "time_zone_id": "America/Sao_Paulo",
  "name": "Criciuma",
  "city_code": "CCM",
  "country_id": "BR",
  "location": "POINT (-49.36667 -28.7)",
  "elevation": "203",
  "icao": "SBCM",
  "city": "Criciuma",
  "state": "Santa Catarina"
},{
  "_id": {
    "$oid": "635ed87c07ae6ca9558ee836"
  },
  "iata": "CCQ",
  "time_zone_id": "America/Bahia",
  "name": "Cachoeira",
  "city_code": "CCQ",
  "country_id": "BR",
  "location": "POINT (-38.966667 -12.6)",
  "elevation": "127",
  "city": "Cachoeira",
  "state": "Bahia"
},{
  "_id": {
    "$oid": "635ed87c07ae6ca9558ee838"
  },
  "iata": "MCZ",
  "time_zone_id": "America/Maceio",
  "name": "Maceio-Zumbi dos Palmares International Airport",
  "city_code": "MCZ",
  "country_id": "BR",
  "location": "POINT (-35.800446 -9.512521)",
  "elevation": "321",
  "icao": "SBMO",
  "city": "Satuba",
  "state": "Alagoas"
},{
  "_id": {
    "$oid": "635ed87c07ae6ca9558ee83c"
  },
  "iata": "PLL",
  "time_zone_id": "America/Manaus",
  "name": "Ponta Pelada",
  "city_code": "PLL",
  "country_id": "BR",
  "location": "POINT (-59.98561283693144 -3.1450556)",
  "elevation": "246",
  "icao": "SBMN",
  "city": "Manaus",
  "state": "Amazonas"
},{
  "_id": {
    "$oid": "635ed87c07ae6ca9558ee83d"
  },
  "iata": "POA",
  "time_zone_id": "America/Sao_Paulo",
  "name": "Salgado Filho International Airport",
  "city_code": "POA",
  "country_id": "BR",
  "location": "POINT (-51.16747969953305 -29.995268449999998)",
  "elevation": "22",
  "icao": "SBPA",
  "city": "Porto Alegre",
  "state": "Rio Grande do Sul"
},{
  "_id": {
    "$oid": "635ed87c07ae6ca9558ee83f"
  },
  "iata": "PVH",
  "time_zone_id": "America/Porto_Velho",
  "name": "Porto Velho International Airport",
  "city_code": "PVH",
  "country_id": "BR",
  "location": "POINT (-63.900493918125576 -8.70990265)",
  "elevation": "328",
  "icao": "SBPV",
  "city": "Porto Velho",
  "state": "Rondonia"
},{
  "_id": {
    "$oid": "635ed87c07ae6ca9558ee841"
  },
  "iata": "AAI",
  "time_zone_id": "America/Araguaina",
  "name": "Arraias",
  "city_code": "AAI",
  "country_id": "BR",
  "location": "POINT (-46.933334 -12.916667)",
  "elevation": "2490",
  "icao": "SWRA",
  "city": "Campos Belos",
  "state": "Goias"
},{
  "_id": {
    "$oid": "635ed87c07ae6ca9558ee844"
  },
  "iata": "MOC",
  "time_zone_id": "America/Sao_Paulo",
  "name": "Montes Claros Airport",
  "city_code": "MOC",
  "country_id": "BR",
  "location": "POINT (-43.82008294490494 -16.70518095)",
  "elevation": "2139",
  "icao": "SBMK",
  "city": "Montes Claros",
  "state": "Minas Gerais"
},{
  "_id": {
    "$oid": "635ed87c07ae6ca9558ee846"
  },
  "iata": "CGR",
  "time_zone_id": "America/Campo_Grande",
  "name": "Campo Grande International Airport",
  "city_code": "CGR",
  "country_id": "BR",
  "location": "POINT (-54.68224625125994 -20.471576849999998)",
  "elevation": "1788",
  "icao": "SBCG",
  "city": "Campo Grande",
  "state": "Mato Grosso do Sul"
},{
  "_id": {
    "$oid": "635ed87c07ae6ca9558ee84e"
  },
  "iata": "APQ",
  "time_zone_id": "America/Maceio",
  "name": "Arapiraca",
  "city_code": "APQ",
  "country_id": "BR",
  "location": "POINT (-36.62984998547607 -9.7765662)",
  "elevation": "839",
  "icao": "SNAL",
  "city": "Arapiraca",
  "state": "Alagoas"
},{
  "_id": {
    "$oid": "635ed87c07ae6ca9558ee852"
  },
  "iata": "AQA",
  "time_zone_id": "America/Sao_Paulo",
  "name": "Araraquara",
  "city_code": "AQA",
  "country_id": "BR",
  "location": "POINT (-48.13333 -21.816668)",
  "elevation": "2322",
  "icao": "SBAQ",
  "city": "Araraquara",
  "state": "Sao Paulo"
},{
  "_id": {
    "$oid": "635ed87c07ae6ca9558ee85a"
  },
  "iata": "CTP",
  "time_zone_id": "America/Fortaleza",
  "name": "Carutapera",
  "city_code": "CTP",
  "country_id": "BR",
  "location": "POINT (-46.0172234 -1.250278)",
  "elevation": "95",
  "icao": "SNCP",
  "city": "Carutapera",
  "state": "Maranhao"
},{
  "_id": {
    "$oid": "635ed87c07ae6ca9558ee85d"
  },
  "iata": "CMT",
  "time_zone_id": "America/Belem",
  "name": "Cameta",
  "city_code": "CMT",
  "country_id": "BR",
  "location": "POINT (-49.5 -2.2)",
  "elevation": "32",
  "city": "Cameta",
  "state": "Para"
},{
  "_id": {
    "$oid": "635ed87c07ae6ca9558ee863"
  },
  "iata": "CPU",
  "time_zone_id": "America/Fortaleza",
  "name": "Cururupu",
  "city_code": "CPU",
  "country_id": "BR",
  "location": "POINT (-44.866944 -1.821111)",
  "elevation": "78",
  "icao": "SNCU",
  "city": "Cururupu",
  "state": "Maranhao"
},{
  "_id": {
    "$oid": "635ed87c07ae6ca9558ee865"
  },
  "iata": "TGQ",
  "time_zone_id": "America/Cuiaba",
  "name": "Tangara da Serra",
  "city_code": "TGQ",
  "country_id": "BR",
  "location": "POINT (-57.44358442390656 -14.66279795)",
  "elevation": "1460",
  "icao": "SWTS",
  "city": "Nova Olimpia",
  "state": "Mato Grosso"
},{
  "_id": {
    "$oid": "635ed87c07ae6ca9558ee869"
  },
  "iata": "AJU",
  "time_zone_id": "America/Maceio",
  "name": "Aracaju Airport",
  "city_code": "AJU",
  "country_id": "BR",
  "location": "POINT (-37.07602527743482 -10.98281225)",
  "elevation": "42",
  "icao": "SBAR",
  "city": "Aracaju",
  "state": "Sergipe"
},{
  "_id": {
    "$oid": "635ed87c07ae6ca9558ee86e"
  },
  "iata": "BMS",
  "time_zone_id": "America/Bahia",
  "name": "Brumado",
  "city_code": "BMS",
  "country_id": "BR",
  "location": "POINT (-41.63333 -14.233333)",
  "elevation": "1361",
  "icao": "SSXH",
  "city": "Brumado",
  "state": "Bahia"
},{
  "_id": {
    "$oid": "635ed87c07ae6ca9558ee871"
  },
  "iata": "ARS",
  "time_zone_id": "America/Sao_Paulo",
  "name": "Aragarcas",
  "city_code": "ARS",
  "country_id": "BR",
  "location": "POINT (-52.2411003 -15.8993998)",
  "elevation": "1033",
  "icao": "SJVO",
  "city": "Aragarcas",
  "state": "Goias"
},{
  "_id": {
    "$oid": "635ed87c07ae6ca9558ee879"
  },
  "iata": "BFH",
  "time_zone_id": "America/Sao_Paulo",
  "name": "Bacacheri",
  "city_code": "BFH",
  "country_id": "BR",
  "location": "POINT (-49.231650952179585 -25.4048327)",
  "elevation": "2998",
  "icao": "SBBI",
  "city": "Curitiba",
  "state": "Parana"
},{
  "_id": {
    "$oid": "635ed87c07ae6ca9558ee87b"
  },
  "iata": "BVS",
  "time_zone_id": "America/Belem",
  "name": "Breves",
  "city_code": "BVS",
  "country_id": "BR",
  "location": "POINT (-50.44221729198899 -1.6351127)",
  "elevation": "68",
  "icao": "SNVS",
  "city": "Breves",
  "state": "Para"
},{
  "_id": {
    "$oid": "635ed87c07ae6ca9558ee87d"
  },
  "iata": "BYO",
  "time_zone_id": "America/Campo_Grande",
  "name": "Bonito Airport",
  "city_code": "BYO",
  "country_id": "BR",
  "location": "POINT (-56.45190863172819 -21.24942965)",
  "elevation": "1122",
  "icao": "SBDB",
  "city": "Bonito",
  "state": "Mato Grosso do Sul"
},{
  "_id": {
    "$oid": "635ed87c07ae6ca9558ee87e"
  },
  "iata": "OUS",
  "time_zone_id": "America/Sao_Paulo",
  "name": "Ourinhos",
  "city_code": "OUS",
  "country_id": "BR",
  "location": "POINT (-49.91315384754624 -22.966458)",
  "elevation": "1528",
  "icao": "SDOU",
  "city": "Ourinhos",
  "state": "Sao Paulo"
},{
  "_id": {
    "$oid": "635ed87c07ae6ca9558ee881"
  },
  "iata": "NOK",
  "time_zone_id": "America/Cuiaba",
  "name": "Nova Xavantina",
  "city_code": "NOK",
  "country_id": "BR",
  "location": "POINT (-52.348088000279134 -14.698767)",
  "elevation": "997",
  "icao": "SWXV",
  "city": "Araguaiana",
  "state": "Mato Grosso"
},{
  "_id": {
    "$oid": "635ed87c07ae6ca9558ee886"
  },
  "iata": "CDI",
  "time_zone_id": "America/Sao_Paulo",
  "name": "Cachoeiro Itapemirim",
  "city_code": "CDI",
  "country_id": "BR",
  "location": "POINT (-41.185587839495895 -20.834752)",
  "elevation": "219",
  "icao": "SNKI",
  "city": "Cachoeiro de Itapemirim",
  "state": "Espirito Santo"
},{
  "_id": {
    "$oid": "635ed87c07ae6ca9558ee890"
  },
  "iata": "PHI",
  "time_zone_id": "America/Fortaleza",
  "name": "Pinheiro",
  "city_code": "PHI",
  "country_id": "BR",
  "location": "POINT (-45.083332 -2.516667)",
  "elevation": "22",
  "icao": "SNYE",
  "city": "Pinheiro",
  "state": "Maranhao"
},{
  "_id": {
    "$oid": "635ed87c07ae6ca9558ee894"
  },
  "iata": "PLU",
  "time_zone_id": "America/Sao_Paulo",
  "name": "Belo Horizonte Airport",
  "city_code": "BHZ",
  "country_id": "BR",
  "location": "POINT (-43.75 -19.75)",
  "elevation": "2545",
  "icao": "SBBH",
  "city": "Santa Luzia",
  "state": "Minas Gerais"
},{
  "_id": {
    "$oid": "635ed87c07ae6ca9558ee895"
  },
  "iata": "PMG",
  "time_zone_id": "America/Campo_Grande",
  "name": "International",
  "city_code": "PMG",
  "country_id": "BR",
  "location": "POINT (-55.7 -22.55)",
  "elevation": "2119",
  "icao": "SBPP",
  "city": "Ponta Pora",
  "state": "Mato Grosso do Sul"
},{
  "_id": {
    "$oid": "635ed87c07ae6ca9558ee896"
  },
  "iata": "PNG",
  "time_zone_id": "America/Sao_Paulo",
  "name": "Paranagua",
  "city_code": "PNG",
  "country_id": "BR",
  "location": "POINT (-48.53062440956646 -25.53969285)",
  "elevation": "32",
  "icao": "SSPG",
  "city": "Paranagua",
  "state": "Parana"
},{
  "_id": {
    "$oid": "635ed87c07ae6ca9558ee8aa"
  },
  "iata": "RRJ",
  "time_zone_id": "America/Sao_Paulo",
  "name": "Jacarepaguá Airport",
  "city_code": "RRJ",
  "country_id": "BR",
  "location": "POINT (-43.371449464398225 -22.98641695)",
  "elevation": "45",
  "icao": "SBJR",
  "city": "Rio de Janeiro"
},{
  "_id": {
    "$oid": "635ed87c07ae6ca9558ee8ae"
  },
  "iata": "ERN",
  "time_zone_id": "America/Eirunepe",
  "name": "Eirunepe",
  "city_code": "ERN",
  "country_id": "BR",
  "location": "POINT (-69.88333 -6.583333)",
  "elevation": "416",
  "icao": "SWEI",
  "city": "Eirunepe",
  "state": "Amazonas"
},{
  "_id": {
    "$oid": "635ed87c07ae6ca9558ee8af"
  },
  "iata": "ESI",
  "time_zone_id": "America/Sao_Paulo",
  "name": "Espinosa",
  "city_code": "ESI",
  "country_id": "BR",
  "location": "POINT (-44 -15)",
  "elevation": "1453",
  "icao": "SBEP",
  "city": "Itacarambi",
  "state": "Minas Gerais"
},{
  "_id": {
    "$oid": "635ed87c07ae6ca9558ee8b0"
  },
  "iata": "FRC",
  "time_zone_id": "America/Sao_Paulo",
  "name": "Franca",
  "city_code": "FRC",
  "country_id": "BR",
  "location": "POINT (-47.4375 -20.551945)",
  "elevation": "3303",
  "icao": "SIMK",
  "city": "Franca",
  "state": "Sao Paulo"
},{
  "_id": {
    "$oid": "635ed87c07ae6ca9558ee8b2"
  },
  "iata": "SOD",
  "time_zone_id": "America/Sao_Paulo",
  "name": "Sorocaba",
  "city_code": "SOD",
  "country_id": "BR",
  "location": "POINT (-47.49014641930361 -23.4777055)",
  "elevation": "2070",
  "icao": "SDCO",
  "city": "Sorocaba",
  "state": "Sao Paulo"
},{
  "_id": {
    "$oid": "635ed87c07ae6ca9558ee8b3"
  },
  "iata": "FBE",
  "time_zone_id": "America/Sao_Paulo",
  "name": "Francisco Beltrao",
  "city_code": "FBE",
  "country_id": "BR",
  "location": "POINT (-53.062941314576875 -26.05892195)",
  "elevation": "2106",
  "icao": "SSFB",
  "city": "Francisco Beltrao",
  "state": "Parana"
},{
  "_id": {
    "$oid": "635ed87c07ae6ca9558ee8b4"
  },
  "iata": "FEC",
  "time_zone_id": "America/Bahia",
  "name": "Feira De Santana",
  "city_code": "FEC",
  "country_id": "BR",
  "location": "POINT (-38.90841809405157 -12.2001342)",
  "elevation": "761",
  "icao": "SDIY",
  "city": "Feira de Santana",
  "state": "Bahia"
},{
  "_id": {
    "$oid": "635ed87c07ae6ca9558ee8b6"
  },
  "iata": "FEJ",
  "time_zone_id": "America/Rio_Branco",
  "name": "Feijo",
  "city_code": "FEJ",
  "country_id": "BR",
  "location": "POINT (-70.3402582680074 -8.1398638)",
  "elevation": "498",
  "icao": "SNOU",
  "city": "Feijo",
  "state": "Acre"
},{
  "_id": {
    "$oid": "635ed87c07ae6ca9558ee8b9"
  },
  "iata": "SQY",
  "time_zone_id": "America/Sao_Paulo",
  "name": "Sao Lourenco Do Sul",
  "city_code": "SQY",
  "country_id": "BR",
  "location": "POINT (-52.0334202565532 -31.38606845)",
  "elevation": "121",
  "icao": "SSRU",
  "city": "Sao Lourenco do Sul",
  "state": "Rio Grande do Sul"
},{
  "_id": {
    "$oid": "635ed87c07ae6ca9558ee8ba"
  },
  "iata": "SSA",
  "time_zone_id": "America/Bahia",
  "name": "Deputado Luis Eduardo Magalhaes International Airport",
  "city_code": "SSA",
  "country_id": "BR",
  "location": "POINT (-38.33497451468749 -12.91102045)",
  "elevation": "19",
  "icao": "SBSV",
  "city": "Lauro de Freitas",
  "state": "Bahia"
},{
  "_id": {
    "$oid": "635ed87c07ae6ca9558ee8bc"
  },
  "iata": "FLB",
  "time_zone_id": "America/Fortaleza",
  "name": "Cangapara",
  "city_code": "FLB",
  "country_id": "BR",
  "location": "POINT (-43.033333 -6.8)",
  "elevation": "442",
  "icao": "SNQG",
  "city": "Floriano",
  "state": "Piaui"
},{
  "_id": {
    "$oid": "635ed87c07ae6ca9558ee8c6"
  },
  "iata": "VIA",
  "time_zone_id": "America/Sao_Paulo",
  "name": "Vienna",
  "city_code": "VIA",
  "country_id": "BR",
  "location": "POINT (-51.136112 -27.008333)",
  "elevation": "2588",
  "icao": "SSVI",
  "city": "Videira",
  "state": "Santa Catarina"
},{
  "_id": {
    "$oid": "635ed87c07ae6ca9558ee8c7"
  },
  "iata": "VOT",
  "time_zone_id": "America/Sao_Paulo",
  "name": "Votuporanga",
  "city_code": "VOT",
  "country_id": "BR",
  "location": "POINT (-49.88333 -20.433332)",
  "elevation": "1692",
  "icao": "SDVG",
  "city": "Votuporanga",
  "state": "Sao Paulo"
},{
  "_id": {
    "$oid": "635ed87c07ae6ca9558ee8cb"
  },
  "iata": "GUJ",
  "time_zone_id": "America/Sao_Paulo",
  "name": "Guaratingueta",
  "city_code": "GUJ",
  "country_id": "BR",
  "location": "POINT (-45.20482610775648 -22.791205050000002)",
  "elevation": "1748",
  "icao": "SBGW",
  "city": "Guaratingueta",
  "state": "Sao Paulo"
},{
  "_id": {
    "$oid": "635ed87c07ae6ca9558ee8cc"
  },
  "iata": "GMS",
  "time_zone_id": "America/Fortaleza",
  "name": "Guimaraes",
  "city_code": "GMS",
  "country_id": "BR",
  "location": "POINT (-44.7 -2.15)",
  "elevation": "177",
  "icao": "SNYW",
  "city": "Bequimao",
  "state": "Maranhao"
},{
  "_id": {
    "$oid": "635ed87c07ae6ca9558ee8d0"
  },
  "iata": "GUZ",
  "time_zone_id": "America/Sao_Paulo",
  "name": "Guarapari",
  "city_code": "QDL",
  "country_id": "BR",
  "location": "POINT (-40.49178638456354 -20.6469745)",
  "elevation": "39",
  "icao": "SNGA",
  "city": "Guarapari",
  "state": "Espirito Santo"
},{
  "_id": {
    "$oid": "635ed87c07ae6ca9558ee8d1"
  },
  "iata": "GVR",
  "time_zone_id": "America/Sao_Paulo",
  "name": "Governador Valadares Airport",
  "city_code": "GVR",
  "country_id": "BR",
  "location": "POINT (-41.933334 -18.850279)",
  "elevation": "492",
  "icao": "SBGV",
  "city": "Governador Valadares",
  "state": "Minas Gerais"
},{
  "_id": {
    "$oid": "635ed87c07ae6ca9558ee8d4"
  },
  "iata": "GGF",
  "time_zone_id": "America/Santarem",
  "name": "Almeirim",
  "city_code": "GGF",
  "country_id": "BR",
  "location": "POINT (-52.57808006493803 -1.47928445)",
  "elevation": "597"
},{
  "_id": {
    "$oid": "635ed87c07ae6ca9558ee8d7"
  },
  "iata": "HRZ",
  "time_zone_id": "America/Sao_Paulo",
  "name": "Horizontina",
  "city_code": "HRZ",
  "country_id": "BR",
  "location": "POINT (-54.34020485995269 -27.637036000000002)",
  "elevation": "990",
  "icao": "SSHZ",
  "city": "Horizontina",
  "state": "Rio Grande do Sul"
},{
  "_id": {
    "$oid": "635ed87c07ae6ca9558ee8dc"
  },
  "iata": "JRT",
  "time_zone_id": "America/Manaus",
  "name": "Juruti Airport",
  "city_code": "JRT",
  "country_id": "BR",
  "location": "POINT (-56.0902786255 -2.1866669655)",
  "elevation": "0",
  "city": "Juruti",
  "state": "Para"
},{
  "_id": {
    "$oid": "635ed87c07ae6ca9558ee8e0"
  },
  "iata": "IJU",
  "time_zone_id": "America/Sao_Paulo",
  "name": "J. Batista Bos Filho Airport",
  "city_code": "IJU",
  "country_id": "BR",
  "location": "POINT (-53.916668 -28.416668)",
  "elevation": "1227",
  "icao": "SSIJ",
  "city": "Ijui",
  "state": "Rio Grande do Sul"
},{
  "_id": {
    "$oid": "635ed87c07ae6ca9558ee8e1"
  },
  "iata": "JTC",
  "time_zone_id": "America/Sao_Paulo",
  "name": "Bauru-Arealva Airport",
  "city_code": "JTC",
  "country_id": "BR",
  "location": "POINT (-49.07515943787047 -22.15705835)",
  "elevation": "1962",
  "icao": "SBAE",
  "city": "Bauru",
  "state": "Sao Paulo"
},{
  "_id": {
    "$oid": "635ed87c07ae6ca9558ee8f5"
  },
  "iata": "JEQ",
  "time_zone_id": "America/Bahia",
  "name": "Jequie",
  "city_code": "JEQ",
  "country_id": "BR",
  "location": "POINT (-40.071268208841715 -13.8775218)",
  "elevation": "610",
  "icao": "SNJK",
  "city": "Jequie",
  "state": "Bahia"
},{
  "_id": {
    "$oid": "635ed87c07ae6ca9558ee8f7"
  },
  "iata": "LBR",
  "time_zone_id": "America/Manaus",
  "name": "Labrea",
  "city_code": "LBR",
  "country_id": "BR",
  "location": "POINT (-64.85 -7.25)",
  "elevation": "190",
  "icao": "SWLB",
  "city": "Canutama",
  "state": "Amazonas"
},{
  "_id": {
    "$oid": "635ed87c07ae6ca9558ee94a"
  },
  "iata": "TBT",
  "time_zone_id": "America/Manaus",
  "name": "Tabatinga International Airport",
  "city_code": "TBT",
  "country_id": "BR",
  "location": "POINT (-69.933334 -4.233333)",
  "elevation": "279",
  "icao": "SBTT",
  "city": "Tabatinga",
  "state": "Amazonas"
},{
  "_id": {
    "$oid": "635ed87c07ae6ca9558ee94e"
  },
  "iata": "TLZ",
  "time_zone_id": "America/Sao_Paulo",
  "name": "Catalao",
  "city_code": "TLZ",
  "country_id": "BR",
  "location": "POINT (-47.95 -18.166668)",
  "elevation": "2612",
  "icao": "SWKT",
  "city": "Catalao",
  "state": "Goias"
},{
  "_id": {
    "$oid": "635ed87c07ae6ca9558ee94f"
  },
  "iata": "TMT",
  "time_zone_id": "America/Santarem",
  "name": "Trombetas",
  "city_code": "TMT",
  "country_id": "BR",
  "location": "POINT (-55.583332 -1.916667)",
  "elevation": "287",
  "icao": "SBTB",
  "city": "Abidos",
  "state": "Para"
},{
  "_id": {
    "$oid": "635ed87c07ae6ca9558ee953"
  },
  "iata": "TUR",
  "time_zone_id": "America/Belem",
  "name": "Tucurui",
  "city_code": "TUR",
  "country_id": "BR",
  "location": "POINT (-49.733334 -3.7)",
  "elevation": "830",
  "icao": "SBTU",
  "city": "Tucurui",
  "state": "Para"
},{
  "_id": {
    "$oid": "635ed87c07ae6ca9558ee954"
  },
  "iata": "TUZ",
  "time_zone_id": "America/Belem",
  "name": "Tucuma",
  "city_code": "TUZ",
  "country_id": "BR",
  "location": "POINT (-50.5 -21.883333)",
  "elevation": "1060",
  "city": "Tupa",
  "state": "Sao Paulo"
},{
  "_id": {
    "$oid": "635ed87c07ae6ca9558ee955"
  },
  "iata": "TXF",
  "time_zone_id": "America/Bahia",
  "name": "Teixeira de Freitas Airport",
  "city_code": "TXF",
  "country_id": "BR",
  "location": "POINT (-37.183334 -7.133333)",
  "elevation": "344",
  "icao": "SNTF",
  "city": "Teixeira",
  "state": "Paraiba"
},{
  "_id": {
    "$oid": "635ed87c07ae6ca9558ee957"
  },
  "iata": "UBT",
  "time_zone_id": "America/Sao_Paulo",
  "name": "Ubatuba",
  "city_code": "UBT",
  "country_id": "BR",
  "location": "POINT (-45.07459704874877 -23.441335600000002)",
  "elevation": "13",
  "icao": "SDUB",
  "city": "Ubatuba",
  "state": "Sao Paulo"
},{
  "_id": {
    "$oid": "635ed87c07ae6ca9558ee958"
  },
  "iata": "UDI",
  "time_zone_id": "America/Sao_Paulo",
  "name": "Uberlandia-Ten. Cel. Av. Cesar Bombonato Airport",
  "city_code": "UDI",
  "country_id": "BR",
  "location": "POINT (-48.233334 -18.9)",
  "elevation": "3094",
  "icao": "SBUL",
  "city": "Uberlandia",
  "state": "Minas Gerais"
},{
  "_id": {
    "$oid": "635ed87c07ae6ca9558ee95f"
  },
  "iata": "VAL",
  "time_zone_id": "America/Bahia",
  "name": "Valenca",
  "city_code": "VAL",
  "country_id": "BR",
  "location": "POINT (-39.083332 -13.333333)",
  "elevation": "249",
  "icao": "SNVB",
  "city": "Valenca",
  "state": "Bahia"
},{
  "_id": {
    "$oid": "635ed87c07ae6ca9558ee960"
  },
  "iata": "VIX",
  "time_zone_id": "America/Sao_Paulo",
  "name": "Eurico de Aguiar Salles Airport",
  "city_code": "VIX",
  "country_id": "BR",
  "location": "POINT (-40.28135718192593 -20.256092950000003)",
  "elevation": "49",
  "icao": "SBVT",
  "city": "Vila Velha",
  "state": "Espirito Santo"
},{
  "_id": {
    "$oid": "635ed87c07ae6ca9558ee966"
  },
  "iata": "OPP",
  "time_zone_id": "America/Belem",
  "name": "Salinópolis Airport",
  "city_code": "OPP",
  "country_id": "BR",
  "location": "POINT (-47.337778 -0.696944)",
  "elevation": "89",
  "icao": "SNSM",
  "city": "Salinópolis"
},{
  "_id": {
    "$oid": "635ed87c07ae6ca9558ee8f8"
  },
  "iata": "LAZ",
  "time_zone_id": "America/Bahia",
  "name": "Bom Jesus Da Lapa",
  "city_code": "LAZ",
  "country_id": "BR",
  "location": "POINT (-43.409181138408584 -13.26170655)",
  "elevation": "1454",
  "icao": "SBLP",
  "city": "Bom Jesus da Lapa",
  "state": "Bahia"
},{
  "_id": {
    "$oid": "635ed87c07ae6ca9558ee8fb"
  },
  "iata": "LDB",
  "time_zone_id": "America/Sao_Paulo",
  "name": "Londrina Airport",
  "city_code": "LDB",
  "country_id": "BR",
  "location": "POINT (-51.137714 -23.328457)",
  "elevation": "1867",
  "icao": "SBLO",
  "city": "Londrina",
  "state": "Parana"
},{
  "_id": {
    "$oid": "635ed87c07ae6ca9558ee8ff"
  },
  "iata": "JNA",
  "time_zone_id": "America/Sao_Paulo",
  "name": "Januaria",
  "city_code": "JNA",
  "country_id": "BR",
  "location": "POINT (-44.38438081278936 -15.473317399999999)",
  "elevation": "1571",
  "icao": "SNJN",
  "city": "Januaria",
  "state": "Minas Gerais"
},{
  "_id": {
    "$oid": "635ed87c07ae6ca9558ee901"
  },
  "iata": "LOI",
  "time_zone_id": "America/Sao_Paulo",
  "name": "Helmuth Baungartem",
  "city_code": "LOI",
  "country_id": "BR",
  "location": "POINT (-49.542778 -27.159721)",
  "elevation": "1062",
  "icao": "SSLN",
  "city": "Ibirama",
  "state": "Santa Catarina"
},{
  "_id": {
    "$oid": "635ed87c07ae6ca9558ee906"
  },
  "iata": "CKS",
  "time_zone_id": "America/Belem",
  "name": "Carajas Airport",
  "city_code": "CKS",
  "country_id": "BR",
  "location": "POINT (-49.99774268663904 -6.11655575)",
  "elevation": "2063",
  "icao": "SBCJ"
},{
  "_id": {
    "$oid": "635ed87c07ae6ca9558ee910"
  },
  "iata": "CFO",
  "time_zone_id": "America/Cuiaba",
  "name": "Confreza",
  "city_code": "CFO",
  "country_id": "BR",
  "location": "POINT (-51.566666 -10.633333)",
  "elevation": "751",
  "icao": "SJHG"
},{
  "_id": {
    "$oid": "635ed87c07ae6ca9558ee911"
  },
  "iata": "NPR",
  "time_zone_id": "America/Santarem",
  "name": "Novo Progresso Municipal",
  "city_code": "NPR",
  "country_id": "BR",
  "location": "POINT (-55.400833 -7.125833)",
  "elevation": "751",
  "icao": "SJNP"
},{
  "_id": {
    "$oid": "635ed87c07ae6ca9558ee913"
  },
  "iata": "RDC",
  "time_zone_id": "America/Belem",
  "name": "Redencao",
  "city_code": "RDC",
  "country_id": "BR",
  "location": "POINT (-49.97954959577524 -8.03127325)",
  "elevation": "603",
  "icao": "SNDC"
},{
  "_id": {
    "$oid": "635ed87c07ae6ca9558ee915"
  },
  "iata": "OBI",
  "time_zone_id": "America/Santarem",
  "name": "Obidos",
  "city_code": "OBI",
  "country_id": "BR",
  "location": "POINT (-55.516666 -1.916667)",
  "elevation": "95",
  "icao": "SNTI"
},{
  "_id": {
    "$oid": "635ed87c07ae6ca9558ee919"
  },
  "iata": "JRN",
  "time_zone_id": "America/Cuiaba",
  "name": "Juruena",
  "city_code": "JRN",
  "country_id": "BR",
  "location": "POINT (-58.49488557867951 -10.314160600000001)",
  "elevation": "525",
  "icao": "SWJU"
},{
  "_id": {
    "$oid": "635ed87c07ae6ca9558ee91a"
  },
  "iata": "OPS",
  "time_zone_id": "America/Cuiaba",
  "name": "Sinop Airport",
  "city_code": "OPS",
  "country_id": "BR",
  "location": "POINT (-55.585581084918076 -11.88507355)",
  "elevation": "1240",
  "icao": "SBSI"
},{
  "_id": {
    "$oid": "635ed87c07ae6ca9558ee91c"
  },
  "iata": "CCX",
  "time_zone_id": "America/Cuiaba",
  "name": "Caceres",
  "city_code": "CCX",
  "country_id": "BR",
  "location": "POINT (-57.7 -16.066668)",
  "elevation": "374",
  "icao": "SWKC"
},{
  "_id": {
    "$oid": "635ed87c07ae6ca9558ee91f"
  },
  "iata": "CQS",
  "time_zone_id": "America/Porto_Velho",
  "name": "Costa Marques",
  "city_code": "CQS",
  "country_id": "BR",
  "location": "POINT (-64.25192287574623 -12.4249231)",
  "elevation": "456",
  "icao": "SWCQ"
},{
  "_id": {
    "$oid": "635ed87c07ae6ca9558ee929"
  },
  "iata": "MII",
  "time_zone_id": "America/Sao_Paulo",
  "name": "Dr Gastao Vidigal Airport",
  "city_code": "MII",
  "country_id": "BR",
  "location": "POINT (-49.933334 -22.2)",
  "elevation": "2014",
  "icao": "SBML",
  "city": "Marilia",
  "state": "Sao Paulo"
},{
  "_id": {
    "$oid": "635ed87c07ae6ca9558ee92b"
  },
  "iata": "MVS",
  "time_zone_id": "America/Bahia",
  "name": "Aeroporto Max Feffer",
  "city_code": "MVS",
  "country_id": "BR",
  "location": "POINT (-39.566666 -18.083332)",
  "elevation": "32",
  "icao": "SNMU",
  "city": "Mucuri",
  "state": "Bahia"
},{
  "_id": {
    "$oid": "635ed87c07ae6ca9558ee92e"
  },
  "iata": "ORX",
  "time_zone_id": "America/Santarem",
  "name": "Oriximina",
  "city_code": "ORX",
  "country_id": "BR",
  "location": "POINT (-55.86667 -1.75)",
  "elevation": "141",
  "icao": "SNOX",
  "city": "Oriximina",
  "state": "Para"
},{
  "_id": {
    "$oid": "635ed87c07ae6ca9558ee92f"
  },
  "iata": "PBB",
  "time_zone_id": "America/Campo_Grande",
  "name": "Paranaiba",
  "city_code": "PBB",
  "country_id": "BR",
  "location": "POINT (-51.183334 -19.666668)",
  "elevation": "1348",
  "icao": "SSPN",
  "city": "Paranaiba",
  "state": "Mato Grosso do Sul"
},{
  "_id": {
    "$oid": "635ed87c07ae6ca9558ee930"
  },
  "iata": "PBQ",
  "time_zone_id": "America/Porto_Velho",
  "name": "Pimenta Bueno",
  "city_code": "PBQ",
  "country_id": "BR",
  "location": "POINT (-61.2 -11.7)",
  "elevation": "626",
  "icao": "SWPM",
  "city": "Pimenta Bueno",
  "state": "Rondonia"
},{
  "_id": {
    "$oid": "635ed87c07ae6ca9558ee932"
  },
  "iata": "PGG",
  "time_zone_id": "America/Santarem",
  "name": "Progresso",
  "city_code": "PGG",
  "country_id": "BR",
  "location": "POINT (-55.46111 -6.954167)",
  "elevation": "688",
  "city": "Jacareacanga",
  "state": "Para"
},{
  "_id": {
    "$oid": "635ed87c07ae6ca9558ee935"
  },
  "iata": "PNB",
  "time_zone_id": "America/Araguaina",
  "name": "Porto Nacional",
  "city_code": "PNB",
  "country_id": "BR",
  "location": "POINT (-48.39911065205263 -10.71799955)",
  "elevation": "810",
  "icao": "SDPE",
  "city": "Palmas",
  "state": "Tocantins"
},{
  "_id": {
    "$oid": "635ed87c07ae6ca9558ee937"
  },
  "iata": "PSW",
  "time_zone_id": "America/Sao_Paulo",
  "name": "Passos",
  "city_code": "PSW",
  "country_id": "BR",
  "location": "POINT (-46.61667 -20.716667)",
  "elevation": "2427",
  "icao": "SNOS",
  "city": "Passos",
  "state": "Minas Gerais"
},{
  "_id": {
    "$oid": "635ed87c07ae6ca9558ee942"
  },
  "iata": "SFK",
  "time_zone_id": "America/Belem",
  "name": "Soure",
  "city_code": "SFK",
  "country_id": "BR",
  "location": "POINT (-48.522920096540616 -0.69864855)",
  "elevation": "39",
  "icao": "SNSW",
  "city": "Soure",
  "state": "Para"
},{
  "_id": {
    "$oid": "635ed87c07ae6ca9558ee945"
  },
  "iata": "SJL",
  "time_zone_id": "America/Manaus",
  "name": "Da Cachoeira",
  "city_code": "SJL",
  "country_id": "BR",
  "location": "POINT (-66.98557275279653 -0.1483109)",
  "elevation": "239",
  "icao": "SBUA",
  "city": "Sao Gabriel da Cachoeira",
  "state": "Amazonas"
},{
  "_id": {
    "$oid": "635ed87c07ae6ca9558ee94b"
  },
  "iata": "TFL",
  "time_zone_id": "America/Sao_Paulo",
  "name": "Teofilo Otoni",
  "city_code": "TFL",
  "country_id": "BR",
  "location": "POINT (-41.5 -17.85)",
  "elevation": "1572",
  "icao": "SNTO",
  "city": "Teofilo Otoni",
  "state": "Minas Gerais"
},{
  "_id": {
    "$oid": "635ed87c07ae6ca9558ee95a"
  },
  "iata": "UNA",
  "time_zone_id": "America/Bahia",
  "name": "Una",
  "city_code": "UNA",
  "country_id": "BR",
  "location": "POINT (-38.997223 -15.353333)",
  "elevation": "20",
  "icao": "SBTC",
  "city": "Una",
  "state": "Bahia"
},{
  "_id": {
    "$oid": "635ed87c07ae6ca9558ee95b"
  },
  "iata": "URB",
  "time_zone_id": "America/Sao_Paulo",
  "name": "Ernesto Pochler",
  "city_code": "URB",
  "country_id": "BR",
  "location": "POINT (-51.566666 -20.783333)",
  "elevation": "1169",
  "city": "Castilho",
  "state": "Sao Paulo"
},{
  "_id": {
    "$oid": "635ed87c07ae6ca9558ee95e"
  },
  "iata": "VAG",
  "time_zone_id": "America/Sao_Paulo",
  "name": "Major-Brigadeiro Trompowsky Airport",
  "city_code": "VAG",
  "country_id": "BR",
  "location": "POINT (-45.433334 -21.55)",
  "elevation": "2870",
  "icao": "SBVG",
  "city": "Varginha",
  "state": "Minas Gerais"
},{
  "_id": {
    "$oid": "635ed87c07ae6ca9558ee961"
  },
  "iata": "XAP",
  "time_zone_id": "America/Sao_Paulo",
  "name": "Chapeco Airport",
  "city_code": "XAP",
  "country_id": "BR",
  "location": "POINT (-52.629723 -27.088612)",
  "elevation": "2146",
  "icao": "SBCH",
  "city": "Chapeco",
  "state": "Santa Catarina"
},{
  "_id": {
    "$oid": "635ed87c07ae6ca9558ee969"
  },
  "iata": "VRZ",
  "time_zone_id": "America/Sao_Paulo",
  "name": "Lavras Airport",
  "city_code": "VRZ",
  "country_id": "BR",
  "location": "POINT (-44.9639 -21.2406)",
  "elevation": "3156",
  "icao": "SSOL",
  "city": "Lavras"
},{
  "_id": {
    "$oid": "635ed87c07ae6ca9558ee96a"
  },
  "iata": "QIG",
  "time_zone_id": "America/Fortaleza",
  "name": "Dr. Francisco Tomé da Frota Airport",
  "city_code": "QIG",
  "country_id": "BR",
  "location": "POINT (-39.298611 -6.347778)",
  "elevation": "692",
  "icao": "SNIG",
  "city": "Iguatu"
},{
  "_id": {
    "$oid": "635ed87c07ae6ca9558ee816"
  },
  "iata": "GDR",
  "time_zone_id": "America/Sao_Paulo",
  "name": "Angra dos Reis Airport",
  "city_code": "GDR",
  "country_id": "BR",
  "location": "POINT (-44.307222 -22.975278)",
  "elevation": "22",
  "icao": "SDAG",
  "city": "Angra dos Reis"
},{
  "_id": {
    "$oid": "635ed87c07ae6ca9558ee81b"
  },
  "iata": "JCS",
  "time_zone_id": "America/Fortaleza",
  "name": "Aeroporto De Crateus Airport",
  "city_code": "JCS",
  "country_id": "BR",
  "location": "POINT (-40.7045819389 -5.21230869969)",
  "elevation": "1026",
  "icao": "SNWS",
  "city": "Crateus"
},{
  "_id": {
    "$oid": "635ed87c07ae6ca9558ee820"
  },
  "iata": "IUP",
  "time_zone_id": "America/Manaus",
  "name": "Lorenzo Airport",
  "city_code": "IUP",
  "country_id": "BR",
  "location": "POINT (-59.8393706089647 -7.1726927603202)",
  "elevation": "616",
  "city": "Apui"
},{
  "_id": {
    "$oid": "635ed87c07ae6ca9558ee823"
  },
  "iata": "ITP",
  "time_zone_id": "America/Sao_Paulo",
  "name": "Itaperuna",
  "city_code": "ITP",
  "country_id": "BR",
  "location": "POINT (-41.87582988333334 -21.219961)",
  "elevation": "331",
  "icao": "SDUN",
  "city": "Itaperuna",
  "state": "Rio de Janeiro"
},{
  "_id": {
    "$oid": "635ed87c07ae6ca9558ee824"
  },
  "iata": "LVB",
  "time_zone_id": "America/Sao_Paulo",
  "name": "Dos Galpoes",
  "city_code": "LVB",
  "country_id": "BR",
  "location": "POINT (-55.61667 -30.833332)",
  "elevation": "997",
  "city": "Rivera",
  "state": "Rivera"
},{
  "_id": {
    "$oid": "635ed87c07ae6ca9558ee826"
  },
  "iata": "BAU",
  "time_zone_id": "America/Sao_Paulo",
  "name": "Bauru Airport",
  "city_code": "BRI",
  "country_id": "BR",
  "location": "POINT (-49.05328145802982 -22.3450535)",
  "elevation": "2047",
  "city": "Bauru",
  "state": "Sao Paulo"
},{
  "_id": {
    "$oid": "635ed87c07ae6ca9558ee827"
  },
  "iata": "AQM",
  "time_zone_id": "America/Porto_Velho",
  "name": "Ariquemes",
  "city_code": "AQM",
  "country_id": "BR",
  "location": "POINT (-63.066666 -9.933333)",
  "elevation": "334",
  "icao": "SJOG",
  "city": "Ariquemes",
  "state": "Rondonia"
},{
  "_id": {
    "$oid": "635ed87c07ae6ca9558ee829"
  },
  "iata": "SLZ",
  "time_zone_id": "America/Fortaleza",
  "name": "Marechal Cunha Machado International Airport",
  "city_code": "SLZ",
  "country_id": "BR",
  "location": "POINT (-44.23940764493366 -2.58899115)",
  "elevation": "111",
  "icao": "SBSL",
  "city": "Sao Luis",
  "state": "Maranhao"
},{
  "_id": {
    "$oid": "635ed87c07ae6ca9558ee82f"
  },
  "iata": "BVB",
  "time_zone_id": "America/Boa_Vista",
  "name": "Boa Vista Airport",
  "city_code": "BVB",
  "country_id": "BR",
  "location": "POINT (-60.666668 2.833333)",
  "elevation": "242",
  "icao": "SBBV",
  "city": "Boa Vista",
  "state": "Roraima"
},{
  "_id": {
    "$oid": "635ed87c07ae6ca9558ee830"
  },
  "iata": "CAC",
  "time_zone_id": "America/Sao_Paulo",
  "name": "Cascavel Airport",
  "city_code": "CAC",
  "country_id": "BR",
  "location": "POINT (-53.466667 -24.95)",
  "elevation": "2417",
  "icao": "SBCA",
  "city": "Cascavel",
  "state": "Parana"
},{
  "_id": {
    "$oid": "635ed87c07ae6ca9558ee837"
  },
  "iata": "BPS",
  "time_zone_id": "America/Bahia",
  "name": "Porto Seguro Airport",
  "city_code": "BPS",
  "country_id": "BR",
  "location": "POINT (-39.08336724314525 -16.4389835)",
  "elevation": "134",
  "icao": "SBPS",
  "city": "Porto Seguro",
  "state": "Bahia"
},{
  "_id": {
    "$oid": "635ed87c07ae6ca9558ee83b"
  },
  "iata": "BSB",
  "time_zone_id": "America/Sao_Paulo",
  "name": "Brasilia International Airport",
  "city_code": "BSB",
  "country_id": "BR",
  "location": "POINT (-47.91172169662855 -15.87174755)",
  "elevation": "3471",
  "icao": "SBBR",
  "city": "Brasilia",
  "state": "Federal District"
},{
  "_id": {
    "$oid": "635ed87c07ae6ca9558ee83e"
  },
  "iata": "PPY",
  "time_zone_id": "America/Sao_Paulo",
  "name": "Pouso Alegre",
  "city_code": "PPY",
  "country_id": "BR",
  "location": "POINT (-45.919592421375825 -22.2890865)",
  "elevation": "2900",
  "icao": "SNZA",
  "city": "Pouso Alegre",
  "state": "Minas Gerais"
},{
  "_id": {
    "$oid": "635ed87c07ae6ca9558ee840"
  },
  "iata": "MNX",
  "time_zone_id": "America/Manaus",
  "name": "Manicore",
  "city_code": "MNX",
  "country_id": "BR",
  "location": "POINT (-61.27874196726444 -5.81173955)",
  "elevation": "98",
  "icao": "SBMY",
  "city": "Manicore",
  "state": "Amazonas"
},{
  "_id": {
    "$oid": "635ed87c07ae6ca9558ee843"
  },
  "iata": "CGB",
  "time_zone_id": "America/Cuiaba",
  "name": "Marechal Rondon International Airport",
  "city_code": "CGB",
  "country_id": "BR",
  "location": "POINT (-56.120266 -15.651725)",
  "elevation": "629",
  "icao": "SBCY",
  "city": "Varzea Grande",
  "state": "Mato Grosso"
},{
  "_id": {
    "$oid": "635ed87c07ae6ca9558ee847"
  },
  "iata": "CBW",
  "time_zone_id": "America/Sao_Paulo",
  "name": "Campo Mourao",
  "city_code": "CBW",
  "country_id": "BR",
  "location": "POINT (-52.35696610253834 -24.009449)",
  "elevation": "1784",
  "icao": "SSKM",
  "city": "Campo Mourao",
  "state": "Parana"
},{
  "_id": {
    "$oid": "635ed87c07ae6ca9558ee84a"
  },
  "iata": "AMJ",
  "time_zone_id": "America/Sao_Paulo",
  "name": "Almenara",
  "city_code": "AMJ",
  "country_id": "BR",
  "location": "POINT (-40.683334 -16.183332)",
  "elevation": "593",
  "icao": "SNAR",
  "city": "Almenara",
  "state": "Minas Gerais"
},{
  "_id": {
    "$oid": "635ed87c07ae6ca9558ee84d"
  },
  "iata": "MTG",
  "time_zone_id": "America/Cuiaba",
  "name": "Mato Grosso",
  "city_code": "MTG",
  "country_id": "BR",
  "location": "POINT (-55 -14)",
  "elevation": "1423",
  "icao": "SWVB",
  "city": "Diamantino",
  "state": "Mato Grosso"
},{
  "_id": {
    "$oid": "635ed87c07ae6ca9558ee850"
  },
  "iata": "APX",
  "time_zone_id": "America/Sao_Paulo",
  "name": "Arapongas",
  "city_code": "APX",
  "country_id": "BR",
  "location": "POINT (-51.466667 -23.483334)",
  "elevation": "2309",
  "icao": "SSOG",
  "city": "Apucarana",
  "state": "Parana"
},{
  "_id": {
    "$oid": "635ed87c07ae6ca9558ee854"
  },
  "iata": "CLN",
  "time_zone_id": "America/Fortaleza",
  "name": "Carolina",
  "city_code": "CLN",
  "country_id": "BR",
  "location": "POINT (-47.45 -7.333333)",
  "elevation": "587",
  "icao": "SBCI",
  "city": "Carolina",
  "state": "Maranhao"
},{
  "_id": {
    "$oid": "635ed87c07ae6ca9558ee855"
  },
  "iata": "CLV",
  "time_zone_id": "America/Sao_Paulo",
  "name": "Caldas Novas",
  "city_code": "CLV",
  "country_id": "BR",
  "location": "POINT (-48.6081742294032 -17.7247899)",
  "elevation": "2276",
  "icao": "SBCN",
  "city": "Caldas Novas",
  "state": "Goias"
},{
  "_id": {
    "$oid": "635ed87c07ae6ca9558ee856"
  },
  "iata": "CMC",
  "time_zone_id": "America/Fortaleza",
  "name": "Camocim",
  "city_code": "CMC",
  "country_id": "BR",
  "location": "POINT (-40.85836649182566 -2.89492665)",
  "elevation": "13",
  "icao": "SNWC",
  "city": "Camocim",
  "state": "Ceara"
},{
  "_id": {
    "$oid": "635ed87c07ae6ca9558ee857"
  },
  "iata": "ATM",
  "time_zone_id": "America/Santarem",
  "name": "Altamira Airport",
  "city_code": "ATM",
  "country_id": "BR",
  "location": "POINT (-52.216667 -3.2)",
  "elevation": "321",
  "icao": "SBHT",
  "city": "Altamira",
  "state": "Para"
},{
  "_id": {
    "$oid": "635ed87c07ae6ca9558ee85b"
  },
  "iata": "AUX",
  "time_zone_id": "America/Araguaina",
  "name": "Araguaina Airport",
  "city_code": "AUX",
  "country_id": "BR",
  "location": "POINT (-48.2 -7.2)",
  "elevation": "810",
  "icao": "SWGN",
  "city": "Araguaina",
  "state": "Tocantins"
},{
  "_id": {
    "$oid": "635ed87c07ae6ca9558ee85e"
  },
  "iata": "CNV",
  "time_zone_id": "America/Bahia",
  "name": "Canavieiras",
  "city_code": "CNV",
  "country_id": "BR",
  "location": "POINT (-38.9558886 -15.6649926)",
  "elevation": "32",
  "icao": "SNED",
  "city": "Canavieiras",
  "state": "Bahia"
},{
  "_id": {
    "$oid": "635ed87c07ae6ca9558ee861"
  },
  "iata": "BCR",
  "time_zone_id": "America/Manaus",
  "name": "Boca Do Acre",
  "city_code": "BCR",
  "country_id": "BR",
  "location": "POINT (-67.38333 -8.75)",
  "elevation": "377",
  "icao": "SWNK",
  "city": "Boca do Acre",
  "state": "Amazonas"
},{
  "_id": {
    "$oid": "635ed87c07ae6ca9558ee864"
  },
  "iata": "CRQ",
  "time_zone_id": "America/Bahia",
  "name": "Caravelas",
  "city_code": "CRQ",
  "country_id": "BR",
  "location": "POINT (-39.25 -17.75)",
  "elevation": "0",
  "icao": "SSCV",
  "city": "Nova Vicosa",
  "state": "Bahia"
},{
  "_id": {
    "$oid": "635ed87c07ae6ca9558ee866"
  },
  "iata": "THE",
  "time_zone_id": "America/Fortaleza",
  "name": "Teresina Airport",
  "city_code": "THE",
  "country_id": "BR",
  "location": "POINT (-42.823510202633514 -5.0598744)",
  "elevation": "219",
  "icao": "SBTE",
  "city": "Teresina",
  "state": "Piaui"
},{
  "_id": {
    "$oid": "635ed87c07ae6ca9558ee872"
  },
  "iata": "ARU",
  "time_zone_id": "America/Sao_Paulo",
  "name": "Aracatuba Airport",
  "city_code": "ARU",
  "country_id": "BR",
  "location": "POINT (-50.425139094792286 -21.140815)",
  "elevation": "1341",
  "icao": "SBAU",
  "city": "Aracatuba",
  "state": "Sao Paulo"
},{
  "_id": {
    "$oid": "635ed87c07ae6ca9558ee877"
  },
  "iata": "NTM",
  "time_zone_id": "America/Araguaina",
  "name": "Miracema Do Norte",
  "city_code": "NTM",
  "country_id": "BR",
  "location": "POINT (-48.5 -9.183333)",
  "elevation": "849"
},{
  "_id": {
    "$oid": "635ed87c07ae6ca9558ee878"
  },
  "iata": "BEL",
  "time_zone_id": "America/Belem",
  "name": "Val De Cans International Airport",
  "city_code": "BEL",
  "country_id": "BR",
  "location": "POINT (-48.47964610194296 -1.3798578)",
  "elevation": "19",
  "icao": "SBBE",
  "city": "Belem",
  "state": "Para"
},{
  "_id": {
    "$oid": "635ed87c07ae6ca9558ee87a"
  },
  "iata": "BVM",
  "time_zone_id": "America/Bahia",
  "name": "Belmonte",
  "city_code": "BVM",
  "country_id": "BR",
  "location": "POINT (-38.916668 -15.833333)",
  "elevation": "45",
  "icao": "SNBL",
  "city": "Belmonte",
  "state": "Bahia"
},{
  "_id": {
    "$oid": "635ed87c07ae6ca9558ee883"
  },
  "iata": "NVT",
  "time_zone_id": "America/Sao_Paulo",
  "name": "Navegantes Airport",
  "city_code": "NVT",
  "country_id": "BR",
  "location": "POINT (-48.649354164934465 -26.87842885)",
  "elevation": "19",
  "icao": "SBNF",
  "city": "Navegantes",
  "state": "Santa Catarina"
},{
  "_id": {
    "$oid": "635ed87c07ae6ca9558ee885"
  },
  "iata": "OLC",
  "time_zone_id": "America/Manaus",
  "name": "Sen. Eunice Micheles",
  "city_code": "OLC",
  "country_id": "BR",
  "location": "POINT (-68.95853 -3.470869)",
  "elevation": "255",
  "icao": "SDCG",
  "city": "Sao Paulo de Olivenca",
  "state": "Amazonas"
},{
  "_id": {
    "$oid": "635ed87c07ae6ca9558ee88e"
  },
  "iata": "PGZ",
  "time_zone_id": "America/Sao_Paulo",
  "name": "Comte Antonio Amilton Beraldo Airport",
  "city_code": "PGZ",
  "country_id": "BR",
  "location": "POINT (-50.15 -25.083332)",
  "elevation": "2969",
  "icao": "SBPG",
  "city": "Ponta Grossa",
  "state": "Parana"
},{
  "_id": {
    "$oid": "635ed87c07ae6ca9558ee892"
  },
  "iata": "CNF",
  "time_zone_id": "America/Sao_Paulo",
  "name": "Tancredo Neves International Airport",
  "city_code": "BHZ",
  "country_id": "BR",
  "location": "POINT (-43.96836942393943 -19.63339785)",
  "elevation": "2713",
  "icao": "SBCF",
  "city": "Lagoa Santa",
  "state": "Minas Gerais"
},{
  "_id": {
    "$oid": "635ed87c07ae6ca9558ee897"
  },
  "iata": "PNZ",
  "time_zone_id": "America/Recife",
  "name": "Petrolina International Airport",
  "city_code": "PNZ",
  "country_id": "BR",
  "location": "POINT (-40.490555 -9.393333)",
  "elevation": "1223",
  "icao": "SBPL",
  "city": "Petrolina",
  "state": "Pernambuco"
},{
  "_id": {
    "$oid": "635ed87c07ae6ca9558ee89a"
  },
  "iata": "POO",
  "time_zone_id": "America/Sao_Paulo",
  "name": "Pocos De Caldas",
  "city_code": "POO",
  "country_id": "BR",
  "location": "POINT (-46.566647194940074 -21.842504849999997)",
  "elevation": "4110",
  "icao": "SBPC",
  "city": "Pocos de Caldas",
  "state": "Minas Gerais"
},{
  "_id": {
    "$oid": "635ed87c07ae6ca9558ee89c"
  },
  "iata": "CWB",
  "time_zone_id": "America/Sao_Paulo",
  "name": "Afonso Pena International Airport",
  "city_code": "CWB",
  "country_id": "BR",
  "location": "POINT (-49.176544 -25.5322)",
  "elevation": "2956",
  "icao": "SBCT",
  "city": "Sao Jose dos Pinhais",
  "state": "Parana"
},{
  "_id": {
    "$oid": "635ed87c07ae6ca9558ee89e"
  },
  "iata": "CZB",
  "time_zone_id": "America/Sao_Paulo",
  "name": "Carlos Ruhl",
  "city_code": "CZB",
  "country_id": "BR",
  "location": "POINT (-53.558334 -28.641666)",
  "elevation": "1312",
  "icao": "SSAK",
  "city": "Cruz Alta",
  "state": "Rio Grande do Sul"
},{
  "_id": {
    "$oid": "635ed87c07ae6ca9558ee89f"
  },
  "iata": "CZS",
  "time_zone_id": "America/Rio_Branco",
  "name": "Campo Internacional Airport",
  "city_code": "CZS",
  "country_id": "BR",
  "location": "POINT (-72.78333 -7.583333)",
  "elevation": "646",
  "icao": "SBCZ",
  "city": "Cruzeiro do Sul",
  "state": "Acre"
},{
  "_id": {
    "$oid": "635ed87c07ae6ca9558ee8a0"
  },
  "iata": "DIQ",
  "time_zone_id": "America/Sao_Paulo",
  "name": "Divinopolis",
  "city_code": "DIQ",
  "country_id": "BR",
  "location": "POINT (-44.870044517354316 -20.18147045)",
  "elevation": "2562",
  "icao": "SNDV",
  "city": "Divinopolis",
  "state": "Minas Gerais"
},{
  "_id": {
    "$oid": "635ed87c07ae6ca9558ee8a2"
  },
  "iata": "PTQ",
  "time_zone_id": "America/Belem",
  "name": "Porto de Moz",
  "city_code": "PTQ",
  "country_id": "BR",
  "location": "POINT (-52.237087731100814 -1.74273455)",
  "elevation": "26",
  "icao": "SNMZ",
  "city": "Porto de Moz",
  "state": "Para"
},{
  "_id": {
    "$oid": "635ed87c07ae6ca9558ee8a7"
  },
  "iata": "RIA",
  "time_zone_id": "America/Sao_Paulo",
  "name": "Santa Maria Airport",
  "city_code": "RIA",
  "country_id": "BR",
  "location": "POINT (-53.6875 -29.710556)",
  "elevation": "285",
  "icao": "SBSM",
  "city": "Santa Maria",
  "state": "Rio Grande do Sul"
},{
  "_id": {
    "$oid": "635ed87c07ae6ca9558ee8a8"
  },
  "iata": "RRN",
  "time_zone_id": "America/Belem",
  "name": "Serra Norte",
  "city_code": "RRN",
  "country_id": "BR",
  "location": "POINT (-59 -11)",
  "elevation": "1092",
  "city": "Vilhena",
  "state": "Rondonia"
},{
  "_id": {
    "$oid": "635ed87c07ae6ca9558ee8a9"
  },
  "iata": "RSG",
  "time_zone_id": "America/Belem",
  "name": "Serra Pelada",
  "city_code": "RSG",
  "country_id": "BR",
  "location": "POINT (-49.65 -5.95)",
  "elevation": "944",
  "city": "Maraba",
  "state": "Para"
},{
  "_id": {
    "$oid": "635ed87c07ae6ca9558ee8ac"
  },
  "iata": "SEI",
  "time_zone_id": "America/Bahia",
  "name": "Senhor Do Bonfim",
  "city_code": "SEI",
  "country_id": "BR",
  "location": "POINT (-40.183334 -10.45)",
  "elevation": "1883",
  "city": "Senhor do Bonfim",
  "state": "Bahia"
},{
  "_id": {
    "$oid": "635ed87c07ae6ca9558ee8b5"
  },
  "iata": "SQM",
  "time_zone_id": "America/Sao_Paulo",
  "name": "São Miguel de Aragao",
  "city_code": "SQM",
  "country_id": "BR",
  "location": "POINT (-50.216667 -13.316667)",
  "elevation": "1171",
  "icao": "SWUA",
  "city": "Sao Miguel do Araguaia",
  "state": "Goias"
},{
  "_id": {
    "$oid": "635ed87c07ae6ca9558ee8b7"
  },
  "iata": "FEN",
  "time_zone_id": "America/Noronha",
  "name": "Fernando De Noronha Airport",
  "city_code": "FEN",
  "country_id": "BR",
  "location": "POINT (-32.4227495764598 -3.8546858)",
  "elevation": "150",
  "icao": "SBFN",
  "city": "Fernando de Noronha (Distrito Estadual)",
  "state": "Pernambuco"
},{
  "_id": {
    "$oid": "635ed87c07ae6ca9558ee8c0"
  },
  "iata": "FOR",
  "time_zone_id": "America/Fortaleza",
  "name": "Pinto Martins Airport",
  "city_code": "FOR",
  "country_id": "BR",
  "location": "POINT (-38.540836 -3.779073)",
  "elevation": "141",
  "icao": "SBFZ",
  "city": "Fortaleza",
  "state": "Ceara"
},{
  "_id": {
    "$oid": "635ed87c07ae6ca9558ee8c5"
  },
  "iata": "VDC",
  "time_zone_id": "America/Bahia",
  "name": "Vitoria Da Conquista Airport",
  "city_code": "VDC",
  "country_id": "BR",
  "location": "POINT (-40.862788613186495 -14.86450825)",
  "elevation": "2916",
  "icao": "SBVC",
  "city": "Vitoria da Conquista",
  "state": "Bahia"
},{
  "_id": {
    "$oid": "635ed87c07ae6ca9558ee8c8"
  },
  "iata": "VLP",
  "time_zone_id": "America/Cuiaba",
  "name": "Vila Rica",
  "city_code": "VLP",
  "country_id": "BR",
  "location": "POINT (-51.14049738118665 -9.981114550000001)",
  "elevation": "813",
  "icao": "SWVC",
  "city": "Conceicao do Araguaia",
  "state": "Para"
},{
  "_id": {
    "$oid": "635ed87c07ae6ca9558ee8ca"
  },
  "iata": "GJM",
  "time_zone_id": "America/Porto_Velho",
  "name": "Guajara-Mirim",
  "city_code": "GJM",
  "country_id": "BR",
  "location": "POINT (-65.36667 -10.783333)",
  "elevation": "387",
  "icao": "SBGM",
  "city": "Guajara Mirim",
  "state": "Rondonia"
},{
  "_id": {
    "$oid": "635ed87c07ae6ca9558ee8cd"
  },
  "iata": "GNM",
  "time_zone_id": "America/Bahia",
  "name": "Guanambi",
  "city_code": "GNM",
  "country_id": "BR",
  "location": "POINT (-42.783333 -14.3)",
  "elevation": "1729",
  "icao": "SNGI",
  "city": "Guanambi",
  "state": "Bahia"
},{
  "_id": {
    "$oid": "635ed87c07ae6ca9558ee8d2"
  },
  "iata": "GYN",
  "time_zone_id": "America/Sao_Paulo",
  "name": "Santa Genoveva Airport",
  "city_code": "GYN",
  "country_id": "BR",
  "location": "POINT (-49.226624 -16.632631)",
  "elevation": "2440",
  "icao": "SBGO",
  "city": "Goiania",
  "state": "Goias"
},{
  "_id": {
    "$oid": "635ed87c07ae6ca9558ee8d5"
  },
  "iata": "GGH",
  "time_zone_id": "America/Sao_Paulo",
  "name": "Gastão Mesquita Airport",
  "city_code": "GGH",
  "country_id": "BR",
  "location": "POINT (-52.642222 -23.691667)",
  "elevation": "1692",
  "city": "Cianorte",
  "state": "Parana"
},{
  "_id": {
    "$oid": "635ed87c07ae6ca9558ee8d6"
  },
  "iata": "GGJ",
  "time_zone_id": "America/Sao_Paulo",
  "name": "Guaíra Airport",
  "city_code": "GGJ",
  "country_id": "BR",
  "location": "POINT (-54.19114629441818 -24.080879449999998)",
  "elevation": "862",
  "icao": "SSGY",
  "city": "Salto del Guaira",
  "state": "Canindeyu"
},{
  "_id": {
    "$oid": "635ed87c07ae6ca9558ee8de"
  },
  "iata": "IGU",
  "time_zone_id": "America/Sao_Paulo",
  "name": "Cataratas International Airport",
  "city_code": "IGU",
  "country_id": "BR",
  "location": "POINT (-54.49060873125 -25.5930616)",
  "elevation": "757",
  "icao": "SBFI",
  "city": "Puerto Iguazu",
  "state": "Misiones"
},{
  "_id": {
    "$oid": "635ed87c07ae6ca9558ee8e5"
  },
  "iata": "IPG",
  "time_zone_id": "America/Manaus",
  "name": "Ipiranga",
  "city_code": "IPG",
  "country_id": "BR",
  "location": "POINT (-65.95 -3.216667)",
  "elevation": "265",
  "icao": "SWII",
  "city": "Fonte Boa",
  "state": "Amazonas"
},{
  "_id": {
    "$oid": "635ed87c07ae6ca9558ee8e6"
  },
  "iata": "IPN",
  "time_zone_id": "America/Sao_Paulo",
  "name": "Usiminas Airport",
  "city_code": "IPN",
  "country_id": "BR",
  "location": "POINT (-42.533333 -19.5)",
  "elevation": "725",
  "icao": "SBIP",
  "city": "Ipatinga",
  "state": "Minas Gerais"
},{
  "_id": {
    "$oid": "635ed87c07ae6ca9558ee8ed"
  },
  "iata": "ITN",
  "time_zone_id": "America/Bahia",
  "name": "Itabuna",
  "city_code": "ITN",
  "country_id": "BR",
  "location": "POINT (-39.3 -14.8)",
  "elevation": "505",
  "icao": "SWTX",
  "city": "Itabuna",
  "state": "Bahia"
},{
  "_id": {
    "$oid": "635ed87c07ae6ca9558ee8ee"
  },
  "iata": "ITR",
  "time_zone_id": "America/Sao_Paulo",
  "name": "Hidroeletrica",
  "city_code": "ITR",
  "country_id": "BR",
  "location": "POINT (-49.21306537143137 -18.44603765)",
  "elevation": "1538",
  "icao": "SBIT",
  "city": "Itumbiara",
  "state": "Goias"
},{
  "_id": {
    "$oid": "635ed87c07ae6ca9558ee8f6"
  },
  "iata": "LAJ",
  "time_zone_id": "America/Sao_Paulo",
  "name": "Correia Pinto Airport",
  "city_code": "LAJ",
  "country_id": "BR",
  "location": "POINT (-50.316666 -27.8)",
  "elevation": "3065",
  "icao": "SBLJ",
  "city": "Lages",
  "state": "Santa Catarina"
},{
  "_id": {
    "$oid": "635ed87c07ae6ca9558ee8fd"
  },
  "iata": "LEC",
  "time_zone_id": "America/Bahia",
  "name": "Coronel Horacio de Mattos Airport",
  "city_code": "LEC",
  "country_id": "BR",
  "location": "POINT (-41.281113 -12.48)",
  "elevation": "1676",
  "icao": "SBLE",
  "city": "Vera Cruz",
  "state": "Bahia"
},{
  "_id": {
    "$oid": "635ed87c07ae6ca9558ee8fe"
  },
  "iata": "LEP",
  "time_zone_id": "America/Sao_Paulo",
  "name": "Leopoldina",
  "city_code": "LEP",
  "country_id": "BR",
  "location": "POINT (-42.666668 -21.466667)",
  "elevation": "919",
  "city": "Leopoldina",
  "state": "Minas Gerais"
},{
  "_id": {
    "$oid": "635ed87c07ae6ca9558ee900"
  },
  "iata": "LIP",
  "time_zone_id": "America/Sao_Paulo",
  "name": "Lins",
  "city_code": "LIP",
  "country_id": "BR",
  "location": "POINT (-49.73213046125255 -21.66259085)",
  "elevation": "1559",
  "icao": "SWXQ",
  "city": "Lins",
  "state": "Sao Paulo"
},{
  "_id": {
    "$oid": "635ed87c07ae6ca9558ee903"
  },
  "iata": "MBK",
  "time_zone_id": "America/Cuiaba",
  "name": "Matupa",
  "city_code": "MBK",
  "country_id": "BR",
  "location": "POINT (-54.932777 -10.0575)",
  "elevation": "994",
  "icao": "SWXM",
  "city": "Alta Floresta",
  "state": "Mato Grosso"
},{
  "_id": {
    "$oid": "635ed87c07ae6ca9558ee90a"
  },
  "iata": "MAB",
  "time_zone_id": "America/Belem",
  "name": "Maraba Airport",
  "city_code": "MAB",
  "country_id": "BR",
  "location": "POINT (-49.166668 -5.366667)",
  "elevation": "334",
  "icao": "SBMA"
},{
  "_id": {
    "$oid": "635ed87c07ae6ca9558ee90b"
  },
  "iata": "OYK",
  "time_zone_id": "America/Belem",
  "name": "Oiapoque",
  "city_code": "OYK",
  "country_id": "BR",
  "location": "POINT (-51.795727219974765 3.8562182)",
  "elevation": "36",
  "icao": "SBOI"
},{
  "_id": {
    "$oid": "635ed87c07ae6ca9558ee917"
  },
  "iata": "PBV",
  "time_zone_id": "America/Cuiaba",
  "name": "Porto Dos Gauchos",
  "city_code": "PBV",
  "country_id": "BR",
  "location": "POINT (-57.3333333 -11.5166667)",
  "elevation": "807",
  "icao": "SWPG"
},{
  "_id": {
    "$oid": "635ed87c07ae6ca9558ee91b"
  },
  "iata": "AIR",
  "time_zone_id": "America/Cuiaba",
  "name": "Aripuana",
  "city_code": "AIR",
  "country_id": "BR",
  "location": "POINT (-59.38333 -10.25)",
  "elevation": "1095",
  "icao": "SSOU"
},{
  "_id": {
    "$oid": "635ed87c07ae6ca9558ee920"
  },
  "iata": "DMT",
  "time_zone_id": "America/Cuiaba",
  "name": "Diamantino",
  "city_code": "DMT",
  "country_id": "BR",
  "location": "POINT (-56.5 -14.5)",
  "elevation": "744",
  "icao": "SWDM"
},{
  "_id": {
    "$oid": "635ed87c07ae6ca9558ee921"
  },
  "iata": "FBA",
  "time_zone_id": "America/Manaus",
  "name": "Fonte Boa",
  "city_code": "FBA",
  "country_id": "BR",
  "location": "POINT (-66.08396647634501 -2.5323850500000002)",
  "elevation": "150",
  "icao": "SWOB"
},{
  "_id": {
    "$oid": "635ed87c07ae6ca9558ee922"
  },
  "iata": "GRP",
  "time_zone_id": "America/Araguaina",
  "name": "Gurupi",
  "city_code": "GRP",
  "country_id": "BR",
  "location": "POINT (-49.216667 -11.666667)",
  "elevation": "898",
  "icao": "SWGI"
},{
  "_id": {
    "$oid": "635ed87c07ae6ca9558ee92c"
  },
  "iata": "NQL",
  "time_zone_id": "America/Sao_Paulo",
  "name": "Niquelandia",
  "city_code": "NQL",
  "country_id": "BR",
  "location": "POINT (-48.983334 -14)",
  "elevation": "1758",
  "icao": "SWNQ",
  "city": "Uruacu",
  "state": "Goias"
},{
  "_id": {
    "$oid": "635ed87c07ae6ca9558ee939"
  },
  "iata": "PVI",
  "time_zone_id": "America/Sao_Paulo",
  "name": "Edu Chaves",
  "city_code": "PVI",
  "country_id": "BR",
  "location": "POINT (-52.466667 -23.066668)",
  "elevation": "1358",
  "icao": "SSPI",
  "city": "Paranavai",
  "state": "Parana"
},{
  "_id": {
    "$oid": "635ed87c07ae6ca9558ee93c"
  },
  "iata": "RAO",
  "time_zone_id": "America/Sao_Paulo",
  "name": "Dr. Leite Lopes State Airport",
  "city_code": "RAO",
  "country_id": "BR",
  "location": "POINT (-47.773335 -21.135834)",
  "elevation": "1791",
  "icao": "SBRP",
  "city": "Ribeirao Preto",
  "state": "Sao Paulo"
},{
  "_id": {
    "$oid": "635ed87c07ae6ca9558ee93d"
  },
  "iata": "RBR",
  "time_zone_id": "America/Rio_Branco",
  "name": "Pres. Medici Airport",
  "city_code": "RBR",
  "country_id": "BR",
  "location": "POINT (-67.8 -9.966667)",
  "elevation": "462",
  "icao": "SBRB",
  "city": "Rio Branco",
  "state": "Acre"
},{
  "_id": {
    "$oid": "635ed87c07ae6ca9558ee93e"
  },
  "iata": "RIG",
  "time_zone_id": "America/Sao_Paulo",
  "name": "Rio Grande",
  "city_code": "RIG",
  "country_id": "BR",
  "location": "POINT (-52.16620090786992 -32.0824308)",
  "elevation": "49",
  "icao": "SJRG",
  "city": "Rio Grande",
  "state": "Rio Grande do Sul"
},{
  "_id": {
    "$oid": "635ed87c07ae6ca9558ee941"
  },
  "iata": "SBJ",
  "time_zone_id": "America/Sao_Paulo",
  "name": "Sao Mateus",
  "city_code": "SBJ",
  "country_id": "BR",
  "location": "POINT (-39.733334 -18.583332)",
  "elevation": "19",
  "icao": "SNMX",
  "city": "Conceicao da Barra",
  "state": "Espirito Santo"
},{
  "_id": {
    "$oid": "635ed87c07ae6ca9558ee947"
  },
  "iata": "SRA",
  "time_zone_id": "America/Sao_Paulo",
  "name": "Santa Rosa",
  "city_code": "SRA",
  "country_id": "BR",
  "location": "POINT (-54.483334 -27.866667)",
  "elevation": "862",
  "icao": "SSZR",
  "city": "Santa Rosa",
  "state": "Rio Grande do Sul"
},{
  "_id": {
    "$oid": "635ed87c07ae6ca9558ee950"
  },
  "iata": "TOW",
  "time_zone_id": "America/Sao_Paulo",
  "name": "Toledo",
  "city_code": "TOW",
  "country_id": "BR",
  "location": "POINT (-53.69611 -24.69861)",
  "elevation": "1843",
  "icao": "SBTD",
  "city": "Toledo",
  "state": "Parana"
},{
  "_id": {
    "$oid": "635ed87c07ae6ca9558ee951"
  },
  "iata": "TRQ",
  "time_zone_id": "America/Rio_Branco",
  "name": "Tarauaca",
  "city_code": "TRQ",
  "country_id": "BR",
  "location": "POINT (-70.75 -8.1)",
  "elevation": "646",
  "icao": "SBTK",
  "city": "Tarauaca",
  "state": "Acre"
},{
  "_id": {
    "$oid": "635ed87c07ae6ca9558ee956"
  },
  "iata": "UBA",
  "time_zone_id": "America/Sao_Paulo",
  "name": "Uberaba Airport",
  "city_code": "UBA",
  "country_id": "BR",
  "location": "POINT (-47.958332 -19.776388)",
  "elevation": "2655",
  "icao": "SBUR",
  "city": "Uberaba",
  "state": "Minas Gerais"
},{
  "_id": {
    "$oid": "635ed87c07ae6ca9558ee959"
  },
  "iata": "UMU",
  "time_zone_id": "America/Sao_Paulo",
  "name": "Ernesto Geisel",
  "city_code": "UMU",
  "country_id": "BR",
  "location": "POINT (-53.31333 -23.798332)",
  "elevation": "1558",
  "icao": "SSUM",
  "city": "Umuarama",
  "state": "Parana"
},{
  "_id": {
    "$oid": "635ed87c07ae6ca9558ee95c"
  },
  "iata": "URG",
  "time_zone_id": "America/Sao_Paulo",
  "name": "Ruben Berta Airport",
  "city_code": "URG",
  "country_id": "BR",
  "location": "POINT (-57.038334 -29.781668)",
  "elevation": "256",
  "icao": "SBUG",
  "city": "Uruguaiana",
  "state": "Rio Grande do Sul"
},{
  "_id": {
    "$oid": "635ed87c07ae6ca9558ee95d"
  },
  "iata": "UVI",
  "time_zone_id": "America/Sao_Paulo",
  "name": "União da Vitória Airport",
  "city_code": "UVI",
  "country_id": "BR",
  "location": "POINT (-51.068889 -26.231667)",
  "elevation": "2437",
  "city": "Porto Uniao",
  "state": "Santa Catarina"
},{
  "_id": {
    "$oid": "635ed87c07ae6ca9558ee965"
  },
  "iata": "NSR",
  "time_zone_id": "America/Fortaleza",
  "name": "São Raimundo Nonato Airport",
  "city_code": "NSR",
  "country_id": "BR",
  "location": "POINT (-42.644444 -9.082778)",
  "elevation": "1362",
  "icao": "SWKY",
  "city": "São Raimundo Nonato"
},{
  "_id": {
    "$oid": "635ed87c07ae6ca9558ee819"
  },
  "iata": "JSB",
  "time_zone_id": "America/Fortaleza",
  "name": "Walfrido Salmito de Almeida Airport",
  "city_code": "JSB",
  "country_id": "BR",
  "location": "POINT (-40.883333 -4.05)",
  "elevation": "2874",
  "icao": "SWBE",
  "city": "São Benedito",
  "state": "Ceará"
},{
  "_id": {
    "$oid": "635ed87c07ae6ca9558ee81c"
  },
  "iata": "JPO",
  "time_zone_id": "America/Recife",
  "name": "Brigadeiro Firmino Ayres Airport",
  "city_code": "NVM",
  "country_id": "BR",
  "location": "POINT (-37.25184761766 -7.037496939556)",
  "elevation": "850",
  "icao": "SNTS",
  "city": "Patos"
},{
  "_id": {
    "$oid": "635ed87c07ae6ca9558ee828"
  },
  "iata": "AUB",
  "time_zone_id": "America/Cuiaba",
  "name": "Itauba Airport",
  "city_code": "AUB",
  "country_id": "BR",
  "location": "POINT (-55.581735 -11.878603)",
  "elevation": "1223",
  "city": "Itauba",
  "state": "Mato Grosso"
},{
  "_id": {
    "$oid": "635ed87c07ae6ca9558ee82a"
  },
  "iata": "BAT",
  "time_zone_id": "America/Sao_Paulo",
  "name": "Airport Chafei Amsei",
  "city_code": "BAT",
  "country_id": "BR",
  "location": "POINT (-48.55 -20.55)",
  "elevation": "1732",
  "icao": "SNBA",
  "city": "Barretos",
  "state": "Sao Paulo"
},{
  "_id": {
    "$oid": "635ed87c07ae6ca9558ee834"
  },
  "iata": "CCI",
  "time_zone_id": "America/Sao_Paulo",
  "name": "Concordia",
  "city_code": "CCI",
  "country_id": "BR",
  "location": "POINT (-52.050556 -27.181389)",
  "elevation": "2398",
  "icao": "SSCK",
  "city": "Concordia",
  "state": "Santa Catarina"
},{
  "_id": {
    "$oid": "635ed87c07ae6ca9558ee83a"
  },
  "iata": "BRB",
  "time_zone_id": "America/Fortaleza",
  "name": "Barreirinhas",
  "city_code": "BRB",
  "country_id": "BR",
  "location": "POINT (-42.80350775032719 -2.7574806)",
  "elevation": "55",
  "icao": "SSRS",
  "city": "Barreirinha",
  "state": "Amazonas"
},{
  "_id": {
    "$oid": "635ed87c07ae6ca9558ee842"
  },
  "iata": "AAX",
  "time_zone_id": "America/Sao_Paulo",
  "name": "Araxa Airport",
  "city_code": "AAX",
  "country_id": "BR",
  "location": "POINT (-46.96040575380038 -19.563132000000003)",
  "elevation": "3267",
  "icao": "SBAX",
  "city": "Araxa",
  "state": "Minas Gerais"
},{
  "_id": {
    "$oid": "635ed87c07ae6ca9558ee845"
  },
  "iata": "CGH",
  "time_zone_id": "America/Sao_Paulo",
  "name": "Sao Paulo/Congonhas Airport",
  "city_code": "SAO",
  "country_id": "BR",
  "location": "POINT (-46.659557 -23.626902)",
  "elevation": "2627",
  "icao": "SBSP",
  "city": "Diadema",
  "state": "Sao Paulo"
},{
  "_id": {
    "$oid": "635ed87c07ae6ca9558ee848"
  },
  "iata": "AIF",
  "time_zone_id": "America/Sao_Paulo",
  "name": "Assis",
  "city_code": "AIF",
  "country_id": "BR",
  "location": "POINT (-50.416668 -22.666668)",
  "elevation": "1804",
  "icao": "SNAX",
  "city": "Assis",
  "state": "Sao Paulo"
},{
  "_id": {
    "$oid": "635ed87c07ae6ca9558ee849"
  },
  "iata": "ALQ",
  "time_zone_id": "America/Sao_Paulo",
  "name": "Federal",
  "city_code": "ALQ",
  "country_id": "BR",
  "location": "POINT (-55.763332 -29.799723)",
  "elevation": "334",
  "icao": "SSLT",
  "city": "Alegrete",
  "state": "Rio Grande do Sul"
},{
  "_id": {
    "$oid": "635ed87c07ae6ca9558ee84b"
  },
  "iata": "CIZ",
  "time_zone_id": "America/Manaus",
  "name": "Coari",
  "city_code": "CIZ",
  "country_id": "BR",
  "location": "POINT (-63.13333 -4.083333)",
  "elevation": "95",
  "icao": "SWKO",
  "city": "Coari",
  "state": "Amazonas"
},{
  "_id": {
    "$oid": "635ed87c07ae6ca9558ee851"
  },
  "iata": "APY",
  "time_zone_id": "America/Fortaleza",
  "name": "Alto Parnaiba",
  "city_code": "APY",
  "country_id": "BR",
  "location": "POINT (-45.933334 -9.133333)",
  "elevation": "941",
  "icao": "SNAI",
  "city": "Morros",
  "state": "Maranhao"
},{
  "_id": {
    "$oid": "635ed87c07ae6ca9558ee858"
  },
  "iata": "CPV",
  "time_zone_id": "America/Fortaleza",
  "name": "Joao Suassuna Airport",
  "city_code": "CPV",
  "country_id": "BR",
  "location": "POINT (-35.89609699581786 -7.27016065)",
  "elevation": "1561",
  "icao": "SBKG",
  "city": "Campina Grande",
  "state": "Paraiba"
},{
  "_id": {
    "$oid": "635ed87c07ae6ca9558ee859"
  },
  "iata": "MVF",
  "time_zone_id": "America/Fortaleza",
  "name": "Dixsept Rosado",
  "city_code": "MVF",
  "country_id": "BR",
  "location": "POINT (-37.25 -5.166667)",
  "elevation": "78",
  "icao": "SBMS",
  "city": "Mossoro",
  "state": "Rio Grande do Norte"
},{
  "_id": {
    "$oid": "635ed87c07ae6ca9558ee85f"
  },
  "iata": "BAZ",
  "time_zone_id": "America/Manaus",
  "name": "Barbelos",
  "city_code": "BAZ",
  "country_id": "BR",
  "location": "POINT (-62.933613 -0.966944)",
  "elevation": "137",
  "icao": "SWBC",
  "city": "Barcelos",
  "state": "Amazonas"
},{
  "_id": {
    "$oid": "635ed87c07ae6ca9558ee860"
  },
  "iata": "CPQ",
  "time_zone_id": "America/Sao_Paulo",
  "name": "International",
  "city_code": "CPQ",
  "country_id": "BR",
  "location": "POINT (-47.111595 -22.856462)",
  "elevation": "1919",
  "city": "Campinas",
  "state": "Sao Paulo"
},{
  "_id": {
    "$oid": "635ed87c07ae6ca9558ee867"
  },
  "iata": "MCP",
  "time_zone_id": "America/Belem",
  "name": "Macapa International Airport",
  "city_code": "MCP",
  "country_id": "BR",
  "location": "POINT (-51.07059996039651 0.0505785)",
  "elevation": "42",
  "icao": "SBMQ",
  "city": "Macapa",
  "state": "Amapa"
},{
  "_id": {
    "$oid": "635ed87c07ae6ca9558ee86a"
  },
  "iata": "CTQ",
  "time_zone_id": "America/Sao_Paulo",
  "name": "Do Palmar",
  "city_code": "CTQ",
  "country_id": "BR",
  "location": "POINT (-50.1 -18.85)",
  "elevation": "1476",
  "icao": "SSVP",
  "city": "Santa Vitoria",
  "state": "Minas Gerais"
},{
  "_id": {
    "$oid": "635ed87c07ae6ca9558ee86c"
  },
  "iata": "NAT",
  "time_zone_id": "America/Fortaleza",
  "name": "Sao Goncalo do Amarante-Governador Aluizio Alves Intl Airport",
  "city_code": "NAT",
  "country_id": "BR",
  "location": "POINT (-35.250244 -5.916787)",
  "elevation": "190",
  "icao": "SBSG",
  "city": "Parnamirim",
  "state": "Rio Grande do Norte"
},{
  "_id": {
    "$oid": "635ed87c07ae6ca9558ee86d"
  },
  "iata": "NBV",
  "time_zone_id": "America/Sao_Paulo",
  "name": "Cana Brava",
  "city_code": "NBV",
  "country_id": "BR",
  "location": "POINT (-45.86667 -17.383333)",
  "elevation": "1722",
  "city": "Joao Pinheiro",
  "state": "Minas Gerais"
},{
  "_id": {
    "$oid": "635ed87c07ae6ca9558ee86f"
  },
  "iata": "BNU",
  "time_zone_id": "America/Sao_Paulo",
  "name": "Blumenau",
  "city_code": "BNU",
  "country_id": "BR",
  "location": "POINT (-49 -27)",
  "elevation": "1289",
  "icao": "SSBL",
  "city": "Gaspar",
  "state": "Santa Catarina"
},{
  "_id": {
    "$oid": "635ed87c07ae6ca9558ee870"
  },
  "iata": "REZ",
  "time_zone_id": "America/Sao_Paulo",
  "name": "Resende",
  "city_code": "REZ",
  "country_id": "BR",
  "location": "POINT (-44.47716871796958 -22.47720015)",
  "elevation": "1315",
  "icao": "SDRS",
  "city": "Resende",
  "state": "Rio de Janeiro"
},{
  "_id": {
    "$oid": "635ed87c07ae6ca9558ee876"
  },
  "iata": "NVM",
  "time_zone_id": "America/Cuiaba",
  "name": "Brigadeiro Eduardo Gomes Airport",
  "city_code": "NVM",
  "country_id": "BR",
  "location": "POINT (-56.0349239329 -13.81380253609)",
  "elevation": "1404",
  "city": "Nova Mutum",
  "state": "Mato Grosso"
},{
  "_id": {
    "$oid": "635ed87c07ae6ca9558ee880"
  },
  "iata": "NNU",
  "time_zone_id": "America/Sao_Paulo",
  "name": "Nanuque",
  "city_code": "NNU",
  "country_id": "BR",
  "location": "POINT (-40.3296120536359 -17.8234475)",
  "elevation": "633",
  "icao": "SNNU",
  "city": "Nanuque",
  "state": "Minas Gerais"
},{
  "_id": {
    "$oid": "635ed87c07ae6ca9558ee884"
  },
  "iata": "BZC",
  "time_zone_id": "America/Sao_Paulo",
  "name": "Buzios",
  "city_code": "BZC",
  "country_id": "BR",
  "location": "POINT (-41.9628374856585 -22.77063)",
  "elevation": "19",
  "icao": "SSBZ",
  "city": "Armacao de Buzios",
  "state": "Rio de Janeiro"
},{
  "_id": {
    "$oid": "635ed87c07ae6ca9558ee887"
  },
  "iata": "CFB",
  "time_zone_id": "America/Sao_Paulo",
  "name": "Cabo Frio International Airport",
  "city_code": "CFB",
  "country_id": "BR",
  "location": "POINT (-42.076586063102596 -22.923360950000003)",
  "elevation": "26",
  "icao": "SBCB",
  "city": "Cabo Frio",
  "state": "Rio de Janeiro"
},{
  "_id": {
    "$oid": "635ed87c07ae6ca9558ee88a"
  },
  "iata": "PAV",
  "time_zone_id": "America/Bahia",
  "name": "Paulo Afonso Airport",
  "city_code": "PAV",
  "country_id": "BR",
  "location": "POINT (-38.25002608988869 -9.4005831)",
  "elevation": "856",
  "icao": "SBUF",
  "city": "Paulo Afonso",
  "state": "Bahia"
},{
  "_id": {
    "$oid": "635ed87c07ae6ca9558ee88b"
  },
  "iata": "PCS",
  "time_zone_id": "America/Fortaleza",
  "name": "Picos",
  "city_code": "PCS",
  "country_id": "BR",
  "location": "POINT (-41.466667 -7.083333)",
  "elevation": "656",
  "icao": "SNPC",
  "city": "Picos",
  "state": "Piaui"
},{
  "_id": {
    "$oid": "635ed87c07ae6ca9558ee898"
  },
  "iata": "CSU",
  "time_zone_id": "America/Sao_Paulo",
  "name": "Santa Cruz Do Sul",
  "city_code": "CSU",
  "country_id": "BR",
  "location": "POINT (-52.41103406734325 -29.68380235)",
  "elevation": "626",
  "icao": "SSSC",
  "city": "Santa Cruz do Sul",
  "state": "Rio Grande do Sul"
},{
  "_id": {
    "$oid": "635ed87c07ae6ca9558ee899"
  },
  "iata": "POJ",
  "time_zone_id": "America/Sao_Paulo",
  "name": "Patos De Minas",
  "city_code": "QPT",
  "country_id": "BR",
  "location": "POINT (-46.4919252194623 -18.67291465)",
  "elevation": "2746",
  "icao": "SNPD",
  "city": "Patos de Minas",
  "state": "Minas Gerais"
},{
  "_id": {
    "$oid": "635ed87c07ae6ca9558ee89b"
  },
  "iata": "CXJ",
  "time_zone_id": "America/Sao_Paulo",
  "name": "Hugo Cantergiani Regional Airport",
  "city_code": "CXJ",
  "country_id": "BR",
  "location": "POINT (-51.1861647969846 -29.19705975)",
  "elevation": "2424",
  "icao": "SBCX",
  "city": "Caxias do Sul",
  "state": "Rio Grande do Sul"
},{
  "_id": {
    "$oid": "635ed87c07ae6ca9558ee89d"
  },
  "iata": "QDV",
  "time_zone_id": "America/Sao_Paulo",
  "name": "Comte. Rolim Adolfo Amaro State Airport",
  "city_code": "JDE",
  "country_id": "BR",
  "location": "POINT (-46.943611 -23.181667)",
  "elevation": "2444",
  "icao": "SBJD",
  "city": "Jundiaí"
},{
  "_id": {
    "$oid": "635ed87c07ae6ca9558ee8a1"
  },
  "iata": "SDU",
  "time_zone_id": "America/Sao_Paulo",
  "name": "Santos Dumont Airport",
  "city_code": "RIO",
  "country_id": "BR",
  "location": "POINT (-43.16418613781168 -22.91044395)",
  "elevation": "49",
  "icao": "SBRJ",
  "city": "Rio de Janeiro",
  "state": "Rio de Janeiro"
},{
  "_id": {
    "$oid": "635ed87c07ae6ca9558ee8a4"
  },
  "iata": "DOU",
  "time_zone_id": "America/Campo_Grande",
  "name": "Dourados Airport",
  "city_code": "DOU",
  "country_id": "BR",
  "location": "POINT (-54.92640220192091 -22.20140635)",
  "elevation": "1423",
  "icao": "SBDO",
  "city": "Dourados",
  "state": "Mato Grosso do Sul"
},{
  "_id": {
    "$oid": "635ed87c07ae6ca9558ee8a6"
  },
  "iata": "REC",
  "time_zone_id": "America/Recife",
  "name": "Guararapes-Gilberto Freyre International Airport",
  "city_code": "REC",
  "country_id": "BR",
  "location": "POINT (-34.92271835508188 -8.1256775)",
  "elevation": "62",
  "icao": "SBRF",
  "city": "Recife",
  "state": "Pernambuco"
},{
  "_id": {
    "$oid": "635ed87c07ae6ca9558ee8ad"
  },
  "iata": "ERM",
  "time_zone_id": "America/Sao_Paulo",
  "name": "Comandante Kraemer",
  "city_code": "ERM",
  "country_id": "BR",
  "location": "POINT (-52.275555 -27.641666)",
  "elevation": "2486",
  "icao": "SSER",
  "city": "Erechim",
  "state": "Rio Grande do Sul"
},{
  "_id": {
    "$oid": "635ed87c07ae6ca9558ee8bf"
  },
  "iata": "SXX",
  "time_zone_id": "America/Belem",
  "name": "Sao Felix Do Xingu",
  "city_code": "SXX",
  "country_id": "BR",
  "location": "POINT (-51.952638481072114 -6.64104735)",
  "elevation": "652",
  "icao": "SNFX",
  "city": "Sao Felix do Xingu",
  "state": "Para"
},{
  "_id": {
    "$oid": "635ed87c07ae6ca9558ee8c1"
  },
  "iata": "VCP",
  "time_zone_id": "America/Sao_Paulo",
  "name": "Viracopos Airport",
  "city_code": "SAO",
  "country_id": "BR",
  "location": "POINT (-47.1418432690333 -23.00605625)",
  "elevation": "2096",
  "icao": "SBKP",
  "city": "Indaiatuba",
  "state": "Sao Paulo"
},{
  "_id": {
    "$oid": "635ed87c07ae6ca9558ee8c3"
  },
  "iata": "GDP",
  "time_zone_id": "America/Fortaleza",
  "name": "Guadalupe",
  "city_code": "GDP",
  "country_id": "BR",
  "location": "POINT (-43.58167 -6.781944)",
  "elevation": "570",
  "icao": "SNGD",
  "city": "Sao Joao dos Patos",
  "state": "Maranhao"
},{
  "_id": {
    "$oid": "635ed87c07ae6ca9558ee8c9"
  },
  "iata": "GIG",
  "time_zone_id": "America/Sao_Paulo",
  "name": "Galeao Antonio Carlos Jobim International Airport",
  "city_code": "RIO",
  "country_id": "BR",
  "location": "POINT (-43.258620204081936 -22.81122025)",
  "elevation": "32",
  "icao": "SBGL",
  "city": "Duque de Caxias",
  "state": "Rio de Janeiro"
},{
  "_id": {
    "$oid": "635ed87c07ae6ca9558ee8ce"
  },
  "iata": "GPB",
  "time_zone_id": "America/Sao_Paulo",
  "name": "Tancredo Thomaz Faria",
  "city_code": "GPB",
  "country_id": "BR",
  "location": "POINT (-51.5 -25.333332)",
  "elevation": "3395",
  "icao": "SSGG",
  "city": "Guarapuava",
  "state": "Parana"
},{
  "_id": {
    "$oid": "635ed87c07ae6ca9558ee8cf"
  },
  "iata": "GRU",
  "time_zone_id": "America/Sao_Paulo",
  "name": "Sao Paulo-Guarulhos International Airport",
  "city_code": "SAO",
  "country_id": "BR",
  "location": "POINT (-46.481320528800595 -23.43779495)",
  "elevation": "2460",
  "icao": "SBGR",
  "city": "Guarulhos",
  "state": "Sao Paulo"
},{
  "_id": {
    "$oid": "635ed87c07ae6ca9558ee8d9"
  },
  "iata": "ITQ",
  "time_zone_id": "America/Sao_Paulo",
  "name": "Itaqui",
  "city_code": "ITQ",
  "country_id": "BR",
  "location": "POINT (-56.540659559488645 -29.17210465)",
  "elevation": "213",
  "icao": "SSIQ",
  "city": "Itaqui",
  "state": "Rio Grande do Sul"
},{
  "_id": {
    "$oid": "635ed87c07ae6ca9558ee8da"
  },
  "iata": "JOI",
  "time_zone_id": "America/Sao_Paulo",
  "name": "Joinville-Lauro Carneiro de Loyola Airport",
  "city_code": "JOI",
  "country_id": "BR",
  "location": "POINT (-48.79862231685878 -26.2249688)",
  "elevation": "15",
  "icao": "SBJV",
  "city": "Joinville",
  "state": "Santa Catarina"
},{
  "_id": {
    "$oid": "635ed87c07ae6ca9558ee8dd"
  },
  "iata": "JPA",
  "time_zone_id": "America/Fortaleza",
  "name": "Presidente Castro Pinto International Airport",
  "city_code": "JPA",
  "country_id": "BR",
  "location": "POINT (-34.95030583440195 -7.148930699999999)",
  "elevation": "217",
  "icao": "SBJP",
  "city": "Bayeux",
  "state": "Paraiba"
},{
  "_id": {
    "$oid": "635ed87c07ae6ca9558ee8df"
  },
  "iata": "JTI",
  "time_zone_id": "America/Sao_Paulo",
  "name": "Jatai",
  "city_code": "JTI",
  "country_id": "BR",
  "location": "POINT (-51.774723 -17.829445)",
  "elevation": "2529",
  "icao": "SWJW",
  "city": "Jatai",
  "state": "Goias"
},{
  "_id": {
    "$oid": "635ed87c07ae6ca9558ee8e4"
  },
  "iata": "IOS",
  "time_zone_id": "America/Bahia",
  "name": "Ilheus/Bahia-Jorge Amado Airport",
  "city_code": "IOS",
  "country_id": "BR",
  "location": "POINT (-39.03 -14.813889)",
  "elevation": "13",
  "icao": "SBIL",
  "city": "Ilheus",
  "state": "Bahia"
},{
  "_id": {
    "$oid": "635ed87c07ae6ca9558ee8e7"
  },
  "iata": "IPU",
  "time_zone_id": "America/Bahia",
  "name": "Ipiau",
  "city_code": "IPU",
  "country_id": "BR",
  "location": "POINT (-39.733334 -14.133333)",
  "elevation": "410",
  "icao": "SNIU",
  "city": "Ipiau",
  "state": "Bahia"
},{
  "_id": {
    "$oid": "635ed87c07ae6ca9558ee8e8"
  },
  "iata": "IRE",
  "time_zone_id": "America/Bahia",
  "name": "Irece",
  "city_code": "IRE",
  "country_id": "BR",
  "location": "POINT (-41.86667 -11.3)",
  "elevation": "2316",
  "icao": "SNIC",
  "city": "Irece",
  "state": "Bahia"
},{
  "_id": {
    "$oid": "635ed87c07ae6ca9558ee8e9"
  },
  "iata": "IRZ",
  "time_zone_id": "America/Manaus",
  "name": "Tapuruquara",
  "city_code": "IRZ",
  "country_id": "BR",
  "location": "POINT (-64.99261880076497 -0.37810525)",
  "elevation": "137",
  "icao": "SWTP",
  "city": "Santa Isabel do Rio Negro",
  "state": "Amazonas"
},{
  "_id": {
    "$oid": "635ed87c07ae6ca9558ee8ea"
  },
  "iata": "ITA",
  "time_zone_id": "America/Manaus",
  "name": "Itacoatiara",
  "city_code": "ITA",
  "country_id": "BR",
  "location": "POINT (-58.416668 -3.133333)",
  "elevation": "62",
  "icao": "SBIC",
  "city": "Itacoatiara",
  "state": "Amazonas"
},{
  "_id": {
    "$oid": "635ed87c07ae6ca9558ee8f2"
  },
  "iata": "JDF",
  "time_zone_id": "America/Sao_Paulo",
  "name": "Francisco De Assis",
  "city_code": "JDF",
  "country_id": "BR",
  "location": "POINT (-43.333332 -21.75)",
  "elevation": "2562",
  "icao": "SBJF",
  "city": "Juiz de Fora",
  "state": "Minas Gerais"
},{
  "_id": {
    "$oid": "635ed87c07ae6ca9558ee8f4"
  },
  "iata": "JDR",
  "time_zone_id": "America/Sao_Paulo",
  "name": "Sao Joao Del Rei",
  "city_code": "JDR",
  "country_id": "BR",
  "location": "POINT (-44.224610172835526 -21.0852396)",
  "elevation": "3057",
  "icao": "SNJR",
  "city": "Tiradentes",
  "state": "Minas Gerais"
},{
  "_id": {
    "$oid": "635ed87c07ae6ca9558ee8f9"
  },
  "iata": "JJD",
  "time_zone_id": "Brazil/East",
  "name": "Jericoacoara",
  "city_code": "JJD",
  "country_id": "BR",
  "location": "POINT (-40.357153993491025 -2.9061462999999996)",
  "elevation": "29",
  "icao": "SBJE",
  "city": "Cruz",
  "state": "Ceara"
},{
  "_id": {
    "$oid": "635ed87c07ae6ca9558ee8fa"
  },
  "iata": "JJG",
  "time_zone_id": "America/Sao_Paulo",
  "name": "Jaguaruna Regional Airport",
  "city_code": "JJG",
  "country_id": "BR",
  "location": "POINT (-49.05437795338313 -28.66726125)",
  "elevation": "82",
  "icao": "SBJA",
  "city": "Jaguaruna",
  "state": "Santa Catarina"
},{
  "_id": {
    "$oid": "635ed87c07ae6ca9558ee8fc"
  },
  "iata": "JLS",
  "time_zone_id": "America/Sao_Paulo",
  "name": "Jales",
  "city_code": "JLS",
  "country_id": "BR",
  "location": "POINT (-50.55 -20.166668)",
  "elevation": "1532",
  "icao": "SDJL",
  "city": "Jales",
  "state": "Sao Paulo"
},{
  "_id": {
    "$oid": "635ed87c07ae6ca9558ee905"
  },
  "iata": "CDJ",
  "time_zone_id": "America/Belem",
  "name": "Conceicao Do Araguaia",
  "city_code": "CDJ",
  "country_id": "BR",
  "location": "POINT (-49.283333 -8.233333)",
  "elevation": "518",
  "icao": "SBAA"
},{
  "_id": {
    "$oid": "635ed87c07ae6ca9558ee907"
  },
  "iata": "MAO",
  "time_zone_id": "America/Manaus",
  "name": "Eduardo Gomes International Airport",
  "city_code": "MAO",
  "country_id": "BR",
  "location": "POINT (-60.04575303314657 -3.03553825)",
  "elevation": "259",
  "icao": "SBEG"
},{
  "_id": {
    "$oid": "635ed87c07ae6ca9558ee90c"
  },
  "iata": "PMW",
  "time_zone_id": "America/Araguaina",
  "name": "Palmas Airport",
  "city_code": "PMW",
  "country_id": "BR",
  "location": "POINT (-48.35278 -10.241667)",
  "elevation": "757",
  "icao": "SBPJ"
},{
  "_id": {
    "$oid": "635ed87c07ae6ca9558ee90d"
  },
  "iata": "BVH",
  "time_zone_id": "America/Porto_Velho",
  "name": "Vilhena Airport",
  "city_code": "BVH",
  "country_id": "BR",
  "location": "POINT (-60.09875397255124 -12.6940825)",
  "elevation": "1922",
  "icao": "SBVH"
},{
  "_id": {
    "$oid": "635ed87c07ae6ca9558ee912"
  },
  "iata": "JUA",
  "time_zone_id": "America/Cuiaba",
  "name": "Juara",
  "city_code": "JUA",
  "country_id": "BR",
  "location": "POINT (-57.466667 -11.333333)",
  "elevation": "870",
  "icao": "SIZX"
},{
  "_id": {
    "$oid": "635ed87c07ae6ca9558ee916"
  },
  "iata": "APU",
  "time_zone_id": "America/Sao_Paulo",
  "name": "Apucarana",
  "city_code": "APU",
  "country_id": "BR",
  "location": "POINT (-51.483334 -23.55)",
  "elevation": "2408",
  "icao": "SSAP"
},{
  "_id": {
    "$oid": "635ed87c07ae6ca9558ee918"
  },
  "iata": "PBX",
  "time_zone_id": "America/Cuiaba",
  "name": "Porto Alegre Do Norte",
  "city_code": "PBX",
  "country_id": "BR",
  "location": "POINT (-51.6844371 -10.8612428)",
  "elevation": "629",
  "icao": "SWPQ"
},{
  "_id": {
    "$oid": "635ed87c07ae6ca9558ee91d"
  },
  "iata": "CQA",
  "time_zone_id": "America/Cuiaba",
  "name": "Canarana Airport",
  "city_code": "CQA",
  "country_id": "BR",
  "location": "POINT (-52.26867717855606 -13.57509615)",
  "elevation": "1325",
  "icao": "SWEK"
},{
  "_id": {
    "$oid": "635ed87c07ae6ca9558ee91e"
  },
  "iata": "LCB",
  "time_zone_id": "America/Cuiaba",
  "name": "Pontes e Lacerda",
  "city_code": "LCB",
  "country_id": "BR",
  "location": "POINT (-59.99861 -13.013333)",
  "elevation": "870",
  "icao": "SWBG"
},{
  "_id": {
    "$oid": "635ed87c07ae6ca9558ee923"
  },
  "iata": "HUW",
  "time_zone_id": "America/Manaus",
  "name": "Humaita",
  "city_code": "HUW",
  "country_id": "BR",
  "location": "POINT (-0.348669 53.583447)",
  "elevation": "59",
  "icao": "SWHT"
},{
  "_id": {
    "$oid": "635ed87c07ae6ca9558ee924"
  },
  "iata": "IDO",
  "time_zone_id": "America/Araguaina",
  "name": "Rio",
  "city_code": "IDO",
  "country_id": "BR",
  "location": "POINT (-50.666668 -11.566667)",
  "elevation": "649",
  "icao": "SWIY"
},{
  "_id": {
    "$oid": "635ed87c07ae6ca9558ee926"
  },
  "iata": "STZ",
  "time_zone_id": "America/Cuiaba",
  "name": "Confresa",
  "city_code": "STZ",
  "country_id": "BR",
  "location": "POINT (-50.45 -10.300278)",
  "elevation": "583",
  "icao": "SWST"
},{
  "_id": {
    "$oid": "635ed87c07ae6ca9558ee927"
  },
  "iata": "AZL",
  "time_zone_id": "America/Cuiaba",
  "name": "Fazenda Tucunare Airport",
  "city_code": "AZL",
  "country_id": "BR",
  "location": "POINT (-58.866935 -13.465528)",
  "elevation": "2020",
  "icao": "SWTU"
},{
  "_id": {
    "$oid": "635ed87c07ae6ca9558ee928"
  },
  "iata": "MGF",
  "time_zone_id": "America/Sao_Paulo",
  "name": "Regional De Maringa",
  "city_code": "MGF",
  "country_id": "BR",
  "location": "POINT (-51.933334 -23.383612)",
  "elevation": "1594",
  "icao": "SBMG",
  "city": "Maringa",
  "state": "Parana"
},{
  "_id": {
    "$oid": "635ed87c07ae6ca9558ee92a"
  },
  "iata": "MQH",
  "time_zone_id": "America/Sao_Paulo",
  "name": "Municipal",
  "city_code": "MQH",
  "country_id": "BR",
  "location": "POINT (-48.233334 -13.533333)",
  "elevation": "1312",
  "icao": "SWIQ",
  "city": "Cavalcante",
  "state": "Goias"
},{
  "_id": {
    "$oid": "635ed87c07ae6ca9558ee92d"
  },
  "iata": "OAL",
  "time_zone_id": "America/Porto_Velho",
  "name": "Cacoal Airport",
  "city_code": "OAL",
  "country_id": "BR",
  "location": "POINT (-61.4825 -11.433889)",
  "elevation": "597",
  "icao": "SSKW",
  "city": "Cacoal",
  "state": "Rondonia"
},{
  "_id": {
    "$oid": "635ed87c07ae6ca9558ee934"
  },
  "iata": "PIV",
  "time_zone_id": "America/Sao_Paulo",
  "name": "Pirapora",
  "city_code": "PIV",
  "country_id": "BR",
  "location": "POINT (-44.93222 -17.338612)",
  "elevation": "1653",
  "icao": "SNPX",
  "city": "Pirapora",
  "state": "Minas Gerais"
},{
  "_id": {
    "$oid": "635ed87c07ae6ca9558ee943"
  },
  "iata": "SFV",
  "time_zone_id": "America/Sao_Paulo",
  "name": "Santa Fe Do Sul",
  "city_code": "SFV",
  "country_id": "BR",
  "location": "POINT (-50.166668 -19.833332)",
  "elevation": "1443",
  "city": "Iturama",
  "state": "Minas Gerais"
},{
  "_id": {
    "$oid": "635ed87c07ae6ca9558ee948"
  },
  "iata": "SSZ",
  "time_zone_id": "America/Sao_Paulo",
  "name": "Santos",
  "city_code": "SSZ",
  "country_id": "BR",
  "location": "POINT (-46.36667 -23.933332)",
  "elevation": "29",
  "icao": "SBST",
  "city": "Sao Vicente",
  "state": "Sao Paulo"
},{
  "_id": {
    "$oid": "635ed87c07ae6ca9558ee94c"
  },
  "iata": "TFF",
  "time_zone_id": "America/Manaus",
  "name": "Tefe Airport",
  "city_code": "TFF",
  "country_id": "BR",
  "location": "POINT (-64.72460759140549 -3.3824045)",
  "elevation": "188",
  "icao": "SBTF",
  "city": "Tefe",
  "state": "Amazonas"
},{
  "_id": {
    "$oid": "635ed87c07ae6ca9558ee94d"
  },
  "iata": "TJL",
  "time_zone_id": "America/Campo_Grande",
  "name": "Três Lagoas Airport",
  "city_code": "TJL",
  "country_id": "BR",
  "location": "POINT (-51.683889 -20.754444)",
  "elevation": "1050",
  "icao": "SBTG",
  "city": "Tres Lagoas",
  "state": "Mato Grosso do Sul"
},{
  "_id": {
    "$oid": "635ed87c07ae6ca9558ee952"
  },
  "iata": "TSQ",
  "time_zone_id": "America/Sao_Paulo",
  "name": "Torres",
  "city_code": "TSQ",
  "country_id": "BR",
  "location": "POINT (-49.746113 -29.3325)",
  "elevation": "26",
  "icao": "SBTR",
  "city": "Torres",
  "state": "Rio Grande do Sul"
},{
  "_id": {
    "$oid": "635ed87c07ae6ca9558ee962"
  },
  "iata": "XIG",
  "time_zone_id": "America/Belem",
  "name": "Xinguara",
  "city_code": "XIG",
  "country_id": "BR",
  "location": "POINT (-48.8 -6.966667)",
  "elevation": "810",
  "icao": "SWSX",
  "city": "Sao Geraldo do Araguaia",
  "state": "Para"
},{
  "_id": {
    "$oid": "635ed87c07ae6ca9558ee963"
  },
  "iata": "ZFU",
  "time_zone_id": "America/Sao_Paulo",
  "name": "Aruja",
  "city_code": "ZFU",
  "country_id": "BR",
  "location": "POINT (-46.3214444 -23.3964516)",
  "elevation": "0",
  "city": "Aruja",
  "state": "Sao Paulo"
},{
  "_id": {
    "$oid": "635ed87c07ae6ca9558ee964"
  },
  "iata": "ZMD",
  "time_zone_id": "America/Rio_Branco",
  "name": "Sena Madureira",
  "city_code": "ZMD",
  "country_id": "BR",
  "location": "POINT (-68.75 -9.083333)",
  "elevation": "540",
  "city": "Sena Madureira",
  "state": "Acre"
},{
  "_id": {
    "$oid": "635ed87c07ae6ca9558ee967"
  },
  "iata": "JAW",
  "time_zone_id": "America/Recife",
  "name": "Aeroporto de Araripina",
  "city_code": "JAW",
  "country_id": "BR",
  "location": "POINT (-40.535556 -7.586389)",
  "elevation": "2195",
  "icao": "SNAB"
},{
  "_id": {
    "$oid": "635ed87c07ae6ca9558ee968"
  },
  "iata": "QGP",
  "time_zone_id": "America/Recife",
  "name": "Garanhuns Airport",
  "city_code": "QGP",
  "country_id": "BR",
  "location": "POINT (-36.471389 -8.834444)",
  "elevation": "2533",
  "icao": "SNGN",
  "city": "Garanhuns"
}]